{
   "type": "FeatureCollection",
   "features": [
  {
    "type": "Feature",
    "geometry": {
       "type": "Point",
       "coordinates":  [ 36.82993,-1.16938 ]
    },
    "properties": {
    "Facility Number":29,
    "Facility Name":"KIAMBU DISTRICT HOSPITAL",
    "HMIS":251,
    "Province":"CENTRAL",
    "District":"KIAMBU",
    "Division":"KIAMBAA",
    "LOCATION":"KIAMBAA S/AREA",
    "Sub-Location":"TOWNSHIPKIAMBAA",
    "Facility Type":1,
    "Agency":"MOH"
    }
  },
  {
    "type": "Feature",
    "geometry": {
       "type": "Point",
       "coordinates":  [ 36.59431,-0.94349 ]
    },
    "properties": {
    "Facility Number":36,
    "Facility Name":"KIJABE HOSPITAL",
    "HMIS":252,
    "Province":"CENTRAL",
    "District":"KIAMBU",
    "Division":"LARI",
    "LOCATION":"KIJABE",
    "Sub-Location":"KIJABE",
    "Facility Type":1,
    "Agency":"MISS"
    }
  },
  {
    "type": "Feature",
    "geometry": {
       "type": "Point",
       "coordinates":  [ 36.7257,-1.13378 ]
    },
    "properties": {
    "Facility Number":51,
    "Facility Name":"NAZARETH HOSPITAL",
    "HMIS":255,
    "Province":"CENTRAL",
    "District":"KIAMBU",
    "Division":"LIMURU",
    "LOCATION":"KARAMBAINI",
    "Sub-Location":"KARAMBAINI",
    "Facility Type":1,
    "Agency":"MISS"
    }
  },
  {
    "type": "Feature",
    "geometry": {
       "type": "Point",
       "coordinates":  [ 36.6667,-1.26667 ]
    },
    "properties": {
    "Facility Number":62,
    "Facility Name":"P.C.E.A. KIKUYU HOSPITAL",
    "HMIS":2441,
    "Province":"CENTRAL",
    "District":"KIAMBU",
    "Division":"KIKUYU",
    "LOCATION":"KIKUYU",
    "Sub-Location":"KIKUYU TOWNSHIP",
    "Facility Type":1,
    "Agency":"MISS"
    }
  },
  {
    "type": "Feature",
    "geometry": {
       "type": "Point",
       "coordinates":  [ 36.6493,-1.12859 ]
    },
    "properties": {
    "Facility Number":66,
    "Facility Name":"TIGONI SUB-DISTRICT HOSPITAL",
    "HMIS":257,
    "Province":"CENTRAL",
    "District":"KIAMBU",
    "Division":"LIMURU",
    "LOCATION":"TIGONI",
    "Sub-Location":"ITHANJIKIAMBU",
    "Facility Type":1,
    "Agency":"MOH"
    }
  },
  {
    "type": "Feature",
    "geometry": {
       "type": "Point",
       "coordinates":  [ 37.2805,-0.50132 ]
    },
    "properties": {
    "Facility Number":30,
    "Facility Name":"KERUGOYA DISTRICT HOSPITAL",
    "HMIS":301,
    "Province":"CENTRAL",
    "District":"KIRINYAGA",
    "Division":"CENTRAL",
    "LOCATION":"KERUGOYA",
    "Sub-Location":"KAGUYUCENTRAL",
    "Facility Type":1,
    "Agency":"MOH"
    }
  },
  {
    "type": "Feature",
    "geometry": {
       "type": "Point",
       "coordinates":  [ 37.34924,-0.66137 ]
    },
    "properties": {
    "Facility Number":52,
    "Facility Name":"MWEA MISS HOSPITAL",
    "HMIS":302,
    "Province":"CENTRAL",
    "District":"KIRINYAGA",
    "Division":"MWEA",
    "LOCATION":"THIBA",
    "Sub-Location":"NGUKA",
    "Facility Type":1,
    "Agency":"MISS"
    }
  },
  {
    "type": "Feature",
    "geometry": {
       "type": "Point",
       "coordinates":  [ 36.977445,-0.852765 ]
    },
    "properties": {
    "Facility Number":3,
    "Facility Name":"GAICHANJIRU MISSION HOSPITAL",
    "HMIS":388,
    "Province":"CENTRAL",
    "District":"MARAGUA",
    "Division":"KANDARA",
    "LOCATION":"ITHIRU",
    "Sub-Location":"GAKUI/KARIMAMWARO",
    "Facility Type":1,
    "Agency":"MISS"
    }
  },
  {
    "type": "Feature",
    "geometry": {
       "type": "Point",
       "coordinates":  [ 37.12663,-0.78693 ]
    },
    "properties": {
    "Facility Number":18,
    "Facility Name":"MARAGUA DISTRICT HOSPITAL RHTC",
    "HMIS":395,
    "Province":"CENTRAL",
    "District":"MARAGUA",
    "Division":"MARAGUA",
    "LOCATION":"NGINDA",
    "Sub-Location":"GAKOIGO",
    "Facility Type":1,
    "Agency":"MOH"
    }
  },
  {
    "type": "Feature",
    "geometry": {
       "type": "Point",
       "coordinates":  [ 36.9482,-0.597467 ]
    },
    "properties": {
    "Facility Number":36,
    "Facility Name":"KIRIAINI MISS. HOSPITAL",
    "HMIS":2379,
    "Province":"CENTRAL",
    "District":"MURANGA",
    "Division":"MATHIOYA",
    "LOCATION":"KIRU",
    "Sub-Location":"KIRIAINIMURANGA",
    "Facility Type":1,
    "Agency":"MISS"
    }
  },
  {
    "type": "Feature",
    "geometry": {
       "type": "Point",
       "coordinates":  [ 37.15985,-0.71587 ]
    },
    "properties": {
    "Facility Number":45,
    "Facility Name":"MURANGA DISTRICT HOSPITAL",
    "HMIS":393,
    "Province":"CENTRAL",
    "District":"MURANGA",
    "Division":"KIHARU",
    "LOCATION":"TOWNSHIP",
    "Sub-Location":"KARURIMURANGA",
    "Facility Type":1,
    "Agency":"MOH"
    }
  },
  {
    "type": "Feature",
    "geometry": {
       "type": "Point",
       "coordinates":  [ 36.97306,-0.74315 ]
    },
    "properties": {
    "Facility Number":47,
    "Facility Name":"MURIRANJAS SUB-DISTRICT HOSP.",
    "HMIS":394,
    "Province":"CENTRAL",
    "District":"MURANGA",
    "Division":"KAHURO",
    "LOCATION":"MUGOIRI",
    "Sub-Location":"KAHURO",
    "Facility Type":1,
    "Agency":"MOH"
    }
  },
  {
    "type": "Feature",
    "geometry": {
       "type": "Point",
       "coordinates":  [ 36.5833,-0.5992 ]
    },
    "properties": {
    "Facility Number":34,
    "Facility Name":"NORTH KINANGOP CATHOLIC HOSPITAL",
    "HMIS":436,
    "Province":"CENTRAL",
    "District":"NYANDARUA",
    "Division":"NORTH KINANGOP",
    "LOCATION":"ENGINEER",
    "Sub-Location":"GATHARA",
    "Facility Type":1,
    "Agency":"MISS"
    }
  },
  {
    "type": "Feature",
    "geometry": {
       "type": "Point",
       "coordinates":  [ 36.3418,0.023274 ]
    },
    "properties": {
    "Facility Number":37,
    "Facility Name":"NYAHURURU DISTRICT HOSPITAL",
    "HMIS":437,
    "Province":"CENTRAL",
    "District":"NYANDARUA",
    "Division":"OL JORO OROK",
    "LOCATION":"GATIMU",
    "Sub-Location":"GIKINGI",
    "Facility Type":1,
    "Agency":"MOH"
    }
  },
  {
    "type": "Feature",
    "geometry": {
       "type": "Point",
       "coordinates":  [ 36.3735,-0.2707 ]
    },
    "properties": {
    "Facility Number":42,
    "Facility Name":"OL'KALOU DISTRICT HOSPITAL",
    "HMIS":438,
    "Province":"CENTRAL",
    "District":"NYANDARUA",
    "Division":"OL KALOU",
    "LOCATION":"OL KALOU",
    "Sub-Location":"MUNYEKI",
    "Facility Type":1,
    "Agency":"MOH"
    }
  },
  {
    "type": "Feature",
    "geometry": {
       "type": "Point",
       "coordinates":  [ 36.91898,-0.41129 ]
    },
    "properties": {
    "Facility Number":6,
    "Facility Name":"CONSOLATA HOSPITAL MATHARI",
    "HMIS":496,
    "Province":"CENTRAL",
    "District":"NYERI",
    "Division":"MUNICIPALITY",
    "LOCATION":"MUKARO",
    "Sub-Location":"MATHARI",
    "Facility Type":1,
    "Agency":"MISS"
    }
  },
  {
    "type": "Feature",
    "geometry": {
       "type": "Point",
       "coordinates":  [ 37.12943,-0.47339 ]
    },
    "properties": {
    "Facility Number":41,
    "Facility Name":"KARATINA SUB-DISTRICT HOSPITAL",
    "HMIS":495,
    "Province":"CENTRAL",
    "District":"NYERI",
    "Division":"MATHIRA",
    "LOCATION":"KARATINA",
    "Sub-Location":"CHERU",
    "Facility Type":1,
    "Agency":"MOH"
    }
  },
  {
    "type": "Feature",
    "geometry": {
       "type": "Point",
       "coordinates":  [ 36.9,-0.31667 ]
    },
    "properties": {
    "Facility Number":54,
    "Facility Name":"MARY IMMACULATE HOSP. MWEIGA",
    "HMIS":1694,
    "Province":"CENTRAL",
    "District":"NYERI",
    "Division":"KIENI WEST",
    "LOCATION":"MWEIGA",
    "Sub-Location":"KAMATONGU",
    "Facility Type":1,
    "Agency":"MISS"
    }
  },
  {
    "type": "Feature",
    "geometry": {
       "type": "Point",
       "coordinates":  [ 36.93414,-0.42414 ]
    },
    "properties": {
    "Facility Number":57,
    "Facility Name":"MT. KENYA HOSPITAL",
    "HMIS":497,
    "Province":"CENTRAL",
    "District":"NYERI",
    "Division":"MUNICIPALITY",
    "LOCATION":"MUKARO",
    "Sub-Location":"MAJENGONYERI",
    "Facility Type":1,
    "Agency":"MOH"
    }
  },
  {
    "type": "Feature",
    "geometry": {
       "type": "Point",
       "coordinates":  [ 37.04464,-0.55924 ]
    },
    "properties": {
    "Facility Number":59,
    "Facility Name":"MUKURWENI SUB-DISTRICT HOSP.",
    "HMIS":498,
    "Province":"CENTRAL",
    "District":"NYERI",
    "Division":"MUKURWE-INI",
    "LOCATION":"MUHITO",
    "Sub-Location":"GATURIA",
    "Facility Type":1,
    "Agency":"MOH"
    }
  },
  {
    "type": "Feature",
    "geometry": {
       "type": "Point",
       "coordinates":  [ 36.93995,-0.5399 ]
    },
    "properties": {
    "Facility Number":75,
    "Facility Name":"OTHAYA SUB-DISTRICT HOSPITAL",
    "HMIS":500,
    "Province":"CENTRAL",
    "District":"NYERI",
    "Division":"OTHAYA",
    "LOCATION":"IRIA-INI",
    "Sub-Location":"KIAHAGU",
    "Facility Type":1,
    "Agency":"MOH"
    }
  },
  {
    "type": "Feature",
    "geometry": {
       "type": "Point",
       "coordinates":  [ 37.07946,-0.48549 ]
    },
    "properties": {
    "Facility Number":82,
    "Facility Name":"TUMUTUMU MISS. HOSPITAL",
    "HMIS":501,
    "Province":"CENTRAL",
    "District":"NYERI",
    "Division":"MATHIRA",
    "LOCATION":"KIRIMUKUYU",
    "Sub-Location":"MBOGOINI",
    "Facility Type":1,
    "Agency":"MISS"
    }
  },
  {
    "type": "Feature",
    "geometry": {
       "type": "Point",
       "coordinates":  [ 36.902312,-1.000232 ]
    },
    "properties": {
    "Facility Number":9,
    "Facility Name":"GATUNDU GENERAL SUB-DISTRICT HOSPITAL",
    "HMIS":250,
    "Province":"CENTRAL",
    "District":"THIKA",
    "Division":"GATUNDU",
    "LOCATION":"NGENDA",
    "Sub-Location":"ITURU",
    "Facility Type":1,
    "Agency":"MOH"
    }
  },
  {
    "type": "Feature",
    "geometry": {
       "type": "Point",
       "coordinates":  [ 37.2202,-1.0712 ]
    },
    "properties": {
    "Facility Number":27,
    "Facility Name":"KILIMAMBOGO MISS. HOSPITAL",
    "HMIS":254,
    "Province":"CENTRAL",
    "District":"THIKA",
    "Division":"MUNICIPALITY",
    "LOCATION":"GATUANYAGA",
    "Sub-Location":"GATUANYAGA",
    "Facility Type":1,
    "Agency":"MISS"
    }
  },
  {
    "type": "Feature",
    "geometry": {
       "type": "Point",
       "coordinates":  [ 37.068919,-1.046838 ]
    },
    "properties": {
    "Facility Number":37,
    "Facility Name":"MARY HELP OF THE SICK  MISSION HOSPITAL",
    "HMIS":0,
    "Province":"CENTRAL",
    "District":"THIKA",
    "Division":"MUNICIPALITY",
    "LOCATION":"THIKA MUNICIPALITY",
    "Sub-Location":"KOMU",
    "Facility Type":1,
    "Agency":"MISS"
    }
  },
  {
    "type": "Feature",
    "geometry": {
       "type": "Point",
       "coordinates":  [ 36.964865,-1.135135 ]
    },
    "properties": {
    "Facility Number":58,
    "Facility Name":"OAKLANDS HOSPITAL",
    "HMIS":2406,
    "Province":"CENTRAL",
    "District":"THIKA",
    "Division":"RUIRU",
    "LOCATION":"RUIRU",
    "Sub-Location":"MUGUTHA",
    "Facility Type":1,
    "Agency":"MISS"
    }
  },
  {
    "type": "Feature",
    "geometry": {
       "type": "Point",
       "coordinates":  [ 36.96113,-0.42399 ]
    },
    "properties": {
    "Facility Number":73,
    "Facility Name":"NYERI PROVINCIAL GENERAL HOSP.",
    "HMIS":499,
    "Province":"CENTRAL",
    "District":"NYERI",
    "Division":"MUNICIPALITY",
    "LOCATION":"MUKARO",
    "Sub-Location":"MAJENGONYERI",
    "Facility Type":2,
    "Agency":"MOH"
    }
  },
  {
    "type": "Feature",
    "geometry": {
       "type": "Point",
       "coordinates":  [ 37.079567,-1.048742 ]
    },
    "properties": {
    "Facility Number":60,
    "Facility Name":"ST LUKE'S HOSPITAL",
    "HMIS":4752,
    "Province":"CENTRAL",
    "District":"THIKA",
    "Division":"MUNICIPALITY",
    "LOCATION":"THIKA MUNICIPALITY",
    "Sub-Location":"KOMU",
    "Facility Type":1,
    "Agency":"MISS"
    }
  },
  {
    "type": "Feature",
    "geometry": {
       "type": "Point",
       "coordinates":  [ 37.1346,-1.07798 ]
    },
    "properties": {
    "Facility Number":61,
    "Facility Name":"ST. MULUMBA CATHOLIC HOSPITAL",
    "HMIS":4754,
    "Province":"CENTRAL",
    "District":"THIKA",
    "Division":"MUNICIPALITY",
    "LOCATION":"THIKA MUNICIPALITY",
    "Sub-Location":"MAJENGOTHIKA",
    "Facility Type":1,
    "Agency":"MISS"
    }
  },
  {
    "type": "Feature",
    "geometry": {
       "type": "Point",
       "coordinates":  [ 37.0776,-1.03678 ]
    },
    "properties": {
    "Facility Number":62,
    "Facility Name":"THIKA DISTRICT HOSPITAL",
    "HMIS":256,
    "Province":"CENTRAL",
    "District":"THIKA",
    "Division":"MUNICIPALITY",
    "LOCATION":"THIKA MUNICIPALITY",
    "Sub-Location":"MAJENGOTHIKA",
    "Facility Type":1,
    "Agency":"MOH"
    }
  },
  {
    "type": "Feature",
    "geometry": {
       "type": "Point",
       "coordinates":  [ 39.85722,-3.63205 ]
    },
    "properties": {
    "Facility Number":16,
    "Facility Name":"KILIFI DISTRICT HOSPITAL",
    "HMIS":565,
    "Province":"COAST",
    "District":"KILIFI",
    "Division":"BAHARI",
    "LOCATION":"KILIFI TOWNSHIP",
    "Sub-Location":"HOSPITALKILIFI",
    "Facility Type":1,
    "Agency":"MOH"
    }
  },
  {
    "type": "Feature",
    "geometry": {
       "type": "Point",
       "coordinates":  [ 39.6334,-3.8166 ]
    },
    "properties": {
    "Facility Number":30,
    "Facility Name":"ST. LUKE'S KALOLENI HOSPITAL",
    "HMIS":2938,
    "Province":"COAST",
    "District":"KILIFI",
    "Division":"KALOLENI",
    "LOCATION":"KALOLENI",
    "Sub-Location":"KALOLENI/VISH/TSAKA",
    "Facility Type":1,
    "Agency":"MISS"
    }
  },
  {
    "type": "Feature",
    "geometry": {
       "type": "Point",
       "coordinates":  [ 39.3132,-4.13986 ]
    },
    "properties": {
    "Facility Number":12,
    "Facility Name":"KINANGO SUB-DISTRICT HOSPITAL",
    "HMIS":609,
    "Province":"COAST",
    "District":"KWALE",
    "Division":"KINANGO",
    "LOCATION":"KINANGO",
    "Sub-Location":"KINANGO",
    "Facility Type":1,
    "Agency":"MOH"
    }
  },
  {
    "type": "Feature",
    "geometry": {
       "type": "Point",
       "coordinates":  [ 39.456,-4.17514 ]
    },
    "properties": {
    "Facility Number":14,
    "Facility Name":"KWALE SUB-DISTRICT HOSPITAL",
    "HMIS":610,
    "Province":"COAST",
    "District":"KWALE",
    "Division":"MATUGA",
    "LOCATION":"GOLINI",
    "Sub-Location":"GOLINI",
    "Facility Type":1,
    "Agency":"MOH"
    }
  },
  {
    "type": "Feature",
    "geometry": {
       "type": "Point",
       "coordinates":  [ 39.4708,-4.48007 ]
    },
    "properties": {
    "Facility Number":36,
    "Facility Name":"MSAMBWENI DISTRICT HOSPITAL",
    "HMIS":611,
    "Province":"COAST",
    "District":"KWALE",
    "Division":"MSAMBWENI",
    "LOCATION":"MSAMBWENI",
    "Sub-Location":"VINGUJINI",
    "Facility Type":1,
    "Agency":"MOH"
    }
  },
  {
    "type": "Feature",
    "geometry": {
       "type": "Point",
       "coordinates":  [ 40.906769,-2.27857 ]
    },
    "properties": {
    "Facility Number":12,
    "Facility Name":"LAMU DISTRICT HOSPITAL",
    "HMIS":631,
    "Province":"COAST",
    "District":"LAMU",
    "Division":"AMU",
    "LOCATION":"SHELLA MANDA",
    "Sub-Location":"SHELLALAMU",
    "Facility Type":1,
    "Agency":"MOH"
    }
  },
  {
    "type": "Feature",
    "geometry": {
       "type": "Point",
       "coordinates":  [ 40.860674,-2.234325 ]
    },
    "properties": {
    "Facility Number":21,
    "Facility Name":"MUKOWE HOSPITAL",
    "HMIS":0,
    "Province":"COAST",
    "District":"LAMU",
    "Division":"HINDI",
    "LOCATION":"MOKOWE",
    "Sub-Location":"MOKOWE",
    "Facility Type":1,
    "Agency":"MOH"
    }
  },
  {
    "type": "Feature",
    "geometry": {
       "type": "Point",
       "coordinates":  [ 40.116335,-3.197483 ]
    },
    "properties": {
    "Facility Number":6,
    "Facility Name":"GALANA HOSPITAL",
    "HMIS":564,
    "Province":"COAST",
    "District":"MALINDI",
    "Division":"MALINDI",
    "LOCATION":"MALINDI",
    "Sub-Location":"SABAKI",
    "Facility Type":1,
    "Agency":"MISS"
    }
  },
  {
    "type": "Feature",
    "geometry": {
       "type": "Point",
       "coordinates":  [ 40.1182,-3.2165 ]
    },
    "properties": {
    "Facility Number":15,
    "Facility Name":"MALINDI DISTRICT HOSPITAL",
    "HMIS":566,
    "Province":"COAST",
    "District":"MALINDI",
    "Division":"MALINDI",
    "LOCATION":"MALINDI",
    "Sub-Location":"BARANI",
    "Facility Type":1,
    "Agency":"MOH"
    }
  },
  {
    "type": "Feature",
    "geometry": {
       "type": "Point",
       "coordinates":  [ 40.112698,-3.220937 ]
    },
    "properties": {
    "Facility Number":26,
    "Facility Name":"TAWFIQ MUSLIM HOSPITAL",
    "HMIS":2940,
    "Province":"COAST",
    "District":"MALINDI",
    "Division":"MALINDI",
    "LOCATION":"MALINDI",
    "Sub-Location":"SHELLAMALINDI",
    "Facility Type":1,
    "Agency":"MISS"
    }
  },
  {
    "type": "Feature",
    "geometry": {
       "type": "Point",
       "coordinates":  [ 39.602867,-4.039267 ]
    },
    "properties": {
    "Facility Number":49,
    "Facility Name":"PORT REITZ DISTRICT HOSPITAL",
    "HMIS":700,
    "Province":"COAST",
    "District":"MOMBASA",
    "Division":"CHANGAMWE",
    "LOCATION":"PORT REITZ",
    "Sub-Location":"PORT REITZ",
    "Facility Type":1,
    "Agency":"MOH"
    }
  },
  {
    "type": "Feature",
    "geometry": {
       "type": "Point",
       "coordinates":  [ 39.68143,-4.068035 ]
    },
    "properties": {
    "Facility Number":59,
    "Facility Name":"UKUMBUSHO CPK HOSP",
    "HMIS":702,
    "Province":"COAST",
    "District":"MOMBASA",
    "Division":"ISLAND",
    "LOCATION":"GANJONI",
    "Sub-Location":"KIZINGOMOMBASA",
    "Facility Type":1,
    "Agency":"MISS"
    }
  },
  {
    "type": "Feature",
    "geometry": {
       "type": "Point",
       "coordinates":  [ 38.56205,-3.39091 ]
    },
    "properties": {
    "Facility Number":19,
    "Facility Name":"MOI VOI DISTRICT HOSPITAL",
    "HMIS":739,
    "Province":"COAST",
    "District":"TAITA TAVETA",
    "Division":"VOI",
    "LOCATION":"VOI",
    "Sub-Location":"KALOLENITAVETA",
    "Facility Type":1,
    "Agency":"MOH"
    }
  },
  {
    "type": "Feature",
    "geometry": {
       "type": "Point",
       "coordinates":  [ 37.67725,-3.3987 ]
    },
    "properties": {
    "Facility Number":34,
    "Facility Name":"TAVETA DISTRICT HOSPITAL",
    "HMIS":740,
    "Province":"COAST",
    "District":"TAITA TAVETA",
    "Division":"TAVETA",
    "LOCATION":"BOMANI",
    "Sub-Location":"MBOGHONI",
    "Facility Type":1,
    "Agency":"MOH"
    }
  },
  {
    "type": "Feature",
    "geometry": {
       "type": "Point",
       "coordinates":  [ 38.342159,-3.40885 ]
    },
    "properties": {
    "Facility Number":37,
    "Facility Name":"WESU DISTRICT HOSPITAL",
    "HMIS":741,
    "Province":"COAST",
    "District":"TAITA TAVETA",
    "Division":"WUNDANYI",
    "LOCATION":"WUNDANYI",
    "Sub-Location":"WUNDANYI",
    "Facility Type":1,
    "Agency":"MOH"
    }
  },
  {
    "type": "Feature",
    "geometry": {
       "type": "Point",
       "coordinates":  [ 40.030251,-1.4988 ]
    },
    "properties": {
    "Facility Number":15,
    "Facility Name":"HOLA DISTRICT HOSPITAL",
    "HMIS":795,
    "Province":"COAST",
    "District":"TANA RIVER",
    "Division":"GALORE",
    "LOCATION":"KIARIKUNGU",
    "Sub-Location":"KIARIKUNGU",
    "Facility Type":1,
    "Agency":"MOH"
    }
  },
  {
    "type": "Feature",
    "geometry": {
       "type": "Point",
       "coordinates":  [ 40.201099,-2.41221 ]
    },
    "properties": {
    "Facility Number":44,
    "Facility Name":"NGAO SUB-DISTRICT HOSPITAL",
    "HMIS":796,
    "Province":"COAST",
    "District":"TANA RIVER",
    "Division":"GARSEN",
    "LOCATION":"KIPAO",
    "Sub-Location":"KIPAO",
    "Facility Type":1,
    "Agency":"MOH"
    }
  },
  {
    "type": "Feature",
    "geometry": {
       "type": "Point",
       "coordinates":  [ 37.7684,0.006292 ]
    },
    "properties": {
    "Facility Number":1,
    "Facility Name":"CHAARIA MISSION HOSP",
    "HMIS":3043,
    "Province":"EASTERN",
    "District":"CENTRAL MERU",
    "Division":"ABOTHUGUCHI EAST",
    "LOCATION":"NDURUMA",
    "Sub-Location":"GAITU",
    "Facility Type":1,
    "Agency":"MISS"
    }
  },
  {
    "type": "Feature",
    "geometry": {
       "type": "Point",
       "coordinates":  [ 37.6622,-0.068017 ]
    },
    "properties": {
    "Facility Number":3,
    "Facility Name":"CONSOLATA NKUBU MISS. HOSPITAL",
    "HMIS":1182,
    "Province":"EASTERN",
    "District":"CENTRAL MERU",
    "Division":"NKUENE",
    "LOCATION":"NKUENE",
    "Sub-Location":"KATHERACMERU",
    "Facility Type":1,
    "Agency":"MISS"
    }
  },
  {
    "type": "Feature",
    "geometry": {
       "type": "Point",
       "coordinates":  [ 37.6215,-0.005739 ]
    },
    "properties": {
    "Facility Number":16,
    "Facility Name":"GITHONGO SUB DISTRICT HOSPITAL",
    "HMIS":1167,
    "Province":"EASTERN",
    "District":"CENTRAL MERU",
    "Division":"ABOTHUGUCHI WEST",
    "LOCATION":"GITHONGO EAST",
    "Sub-Location":"KARUGWA",
    "Facility Type":1,
    "Agency":"MOH"
    }
  },
  {
    "type": "Feature",
    "geometry": {
       "type": "Point",
       "coordinates":  [ 37.6652,-0.193799 ]
    },
    "properties": {
    "Facility Number":19,
    "Facility Name":"IGOJI MISSION HOSPITAL",
    "HMIS":1184,
    "Province":"EASTERN",
    "District":"CENTRAL MERU",
    "Division":"IGOJI",
    "LOCATION":"IGOJI",
    "Sub-Location":"KUIRI",
    "Facility Type":1,
    "Agency":"MISS"
    }
  },
  {
    "type": "Feature",
    "geometry": {
       "type": "Point",
       "coordinates":  [ 37.5638,0.130399 ]
    },
    "properties": {
    "Facility Number":37,
    "Facility Name":"KIRUA COTTAGE HOSPITAL",
    "HMIS":2399,
    "Province":"EASTERN",
    "District":"CENTRAL MERU",
    "Division":"BUURI",
    "LOCATION":"KIIRUA",
    "Sub-Location":"KIIRUA",
    "Facility Type":1,
    "Agency":"MISS"
    }
  },
  {
    "type": "Feature",
    "geometry": {
       "type": "Point",
       "coordinates":  [ 37.6641,0.060928 ]
    },
    "properties": {
    "Facility Number":46,
    "Facility Name":"MERU DISTRICT HOSPITAL",
    "HMIS":1181,
    "Province":"EASTERN",
    "District":"CENTRAL MERU",
    "Division":"MIRIGA MIERU WEST",
    "LOCATION":"MUNICIPALITY",
    "Sub-Location":"KAAGA2",
    "Facility Type":1,
    "Agency":"MOH"
    }
  },
  {
    "type": "Feature",
    "geometry": {
       "type": "Point",
       "coordinates":  [ 37.5968,-0.417376 ]
    },
    "properties": {
    "Facility Number":30,
    "Facility Name":"CONSOLATA HOSPITAL KYENI",
    "HMIS":4261,
    "Province":"EASTERN",
    "District":"EMBU",
    "Division":"KYENI",
    "LOCATION":"KYENI SOUTH",
    "Sub-Location":"KATHANJURI",
    "Facility Type":1,
    "Agency":"MISS"
    }
  },
  {
    "type": "Feature",
    "geometry": {
       "type": "Point",
       "coordinates":  [ 37.5698,-0.424635 ]
    },
    "properties": {
    "Facility Number":39,
    "Facility Name":"RUNYENJES SUB-DISTRICT HOSPITAL",
    "HMIS":842,
    "Province":"EASTERN",
    "District":"EMBU",
    "Division":"RUNYENJES",
    "LOCATION":"RUNYENJES TOWN",
    "Sub-Location":"KIGAA",
    "Facility Type":1,
    "Agency":"MOH"
    }
  },
  {
    "type": "Feature",
    "geometry": {
       "type": "Point",
       "coordinates":  [ 37.5812,0.3751 ]
    },
    "properties": {
    "Facility Number":11,
    "Facility Name":"ISIOLO DISTRICT HOSPITAL",
    "HMIS":873,
    "Province":"EASTERN",
    "District":"ISIOLO",
    "Division":"CENTRAL",
    "LOCATION":"CENTRAL",
    "Sub-Location":"KAMPI ODHA",
    "Facility Type":1,
    "Agency":"MOH"
    }
  },
  {
    "type": "Feature",
    "geometry": {
       "type": "Point",
       "coordinates":  [ 38.0163,-1.3666 ]
    },
    "properties": {
    "Facility Number":24,
    "Facility Name":"KITUI DISTRICT HOSPITAL",
    "HMIS":930,
    "Province":"EASTERN",
    "District":"KITUI",
    "Division":"CENTRAL",
    "LOCATION":"TOWNSHIP",
    "Sub-Location":"TOWNSHIPKITUI",
    "Facility Type":1,
    "Agency":"MOH"
    }
  },
  {
    "type": "Feature",
    "geometry": {
       "type": "Point",
       "coordinates":  [ 37.9969,-1.17637 ]
    },
    "properties": {
    "Facility Number":38,
    "Facility Name":"MUTHALE MISS HOSPITAL",
    "HMIS":3092,
    "Province":"EASTERN",
    "District":"KITUI",
    "Division":"KABATI",
    "LOCATION":"MUTONGUNI",
    "Sub-Location":"KAIMU",
    "Facility Type":1,
    "Agency":"MISS"
    }
  },
  {
    "type": "Feature",
    "geometry": {
       "type": "Point",
       "coordinates":  [ 38.1961,-1.85566 ]
    },
    "properties": {
    "Facility Number":42,
    "Facility Name":"MUTOMO MISS HOSPITAL",
    "HMIS":902,
    "Province":"EASTERN",
    "District":"KITUI",
    "Division":"MUTOMO",
    "LOCATION":"MUTOMO",
    "Sub-Location":"KANDAE",
    "Facility Type":1,
    "Agency":"MISS"
    }
  },
  {
    "type": "Feature",
    "geometry": {
       "type": "Point",
       "coordinates":  [ 37.26928,-1.51643 ]
    },
    "properties": {
    "Facility Number":1,
    "Facility Name":"BISHOP U. KIOKO CATHOLIC HOSPITAL",
    "HMIS":0,
    "Province":"EASTERN",
    "District":"MACHAKOS",
    "Division":"CENTRAL",
    "LOCATION":"MASAKU",
    "Sub-Location":"EASTLEIGH",
    "Facility Type":1,
    "Agency":"MISS"
    }
  },
  {
    "type": "Feature",
    "geometry": {
       "type": "Point",
       "coordinates":  [ 37.359084,-1.298303 ]
    },
    "properties": {
    "Facility Number":3,
    "Facility Name":"FRANCISCAN CONVENT HOSPITAL",
    "HMIS":3890,
    "Province":"EASTERN",
    "District":"MACHAKOS",
    "Division":"KANGUNDO",
    "LOCATION":"KANGUNDO",
    "Sub-Location":"MAIUNI",
    "Facility Type":1,
    "Agency":"MISS"
    }
  },
  {
    "type": "Feature",
    "geometry": {
       "type": "Point",
       "coordinates":  [ 37.3445,-1.28944 ]
    },
    "properties": {
    "Facility Number":17,
    "Facility Name":"KANGUNDO HOSPITAL",
    "HMIS":1037,
    "Province":"EASTERN",
    "District":"MACHAKOS",
    "Division":"KANGUNDO",
    "LOCATION":"KANGUNDO",
    "Sub-Location":"ISINGA",
    "Facility Type":1,
    "Agency":"MOH"
    }
  },
  {
    "type": "Feature",
    "geometry": {
       "type": "Point",
       "coordinates":  [ 37.3291,-1.41667 ]
    },
    "properties": {
    "Facility Number":23,
    "Facility Name":"KATHIANI HOSPITAL",
    "HMIS":1038,
    "Province":"EASTERN",
    "District":"MACHAKOS",
    "Division":"KATHIANI",
    "LOCATION":"KATHIANI",
    "Sub-Location":"KATHIANIMACHAKOS",
    "Facility Type":1,
    "Agency":"MOH"
    }
  },
  {
    "type": "Feature",
    "geometry": {
       "type": "Point",
       "coordinates":  [ 37.263232,-1.502321 ]
    },
    "properties": {
    "Facility Number":49,
    "Facility Name":"MACHAKOS DISTRICT HOSPITAL",
    "HMIS":1040,
    "Province":"EASTERN",
    "District":"MACHAKOS",
    "Division":"CENTRAL",
    "LOCATION":"MUMBUNI",
    "Sub-Location":"UPPER KIANDANI",
    "Facility Type":1,
    "Agency":"MOH"
    }
  },
  {
    "type": "Feature",
    "geometry": {
       "type": "Point",
       "coordinates":  [ 37.35278,-1.7041 ]
    },
    "properties": {
    "Facility Number":0,
    "Facility Name":"MOTHER OF MERCY CATHOLIC MISSION HOSP",
    "HMIS":0,
    "Province":"EASTERN",
    "District":"MACHAKOS",
    "Division":"",
    "LOCATION":"",
    "Sub-Location":"",
    "Facility Type":1,
    "Agency":"MISS"
    }
  },
  {
    "type": "Feature",
    "geometry": {
       "type": "Point",
       "coordinates":  [ 37.321387,-1.266418 ]
    },
    "properties": {
    "Facility Number":88,
    "Facility Name":"TALA SDA HOSPITAL",
    "HMIS":3418,
    "Province":"EASTERN",
    "District":"MACHAKOS",
    "Division":"MATUNGULU",
    "LOCATION":"TALA",
    "Sub-Location":"KYAUME",
    "Facility Type":1,
    "Agency":"MISS"
    }
  },
  {
    "type": "Feature",
    "geometry": {
       "type": "Point",
       "coordinates":  [ 37.39525,-1.80375 ]
    },
    "properties": {
    "Facility Number":24,
    "Facility Name":"KIKOKO MISSION HOSPITAL",
    "HMIS":1039,
    "Province":"EASTERN",
    "District":"MAKUENI",
    "Division":"KILUNGU",
    "LOCATION":"KIKOKO",
    "Sub-Location":"KALONGO",
    "Facility Type":1,
    "Agency":"MISS"
    }
  },
  {
    "type": "Feature",
    "geometry": {
       "type": "Point",
       "coordinates":  [ 37.82413,-2.28127 ]
    },
    "properties": {
    "Facility Number":43,
    "Facility Name":"MAKINDU SUB-DISTRICT HOSPITAL",
    "HMIS":1041,
    "Province":"EASTERN",
    "District":"MAKUENI",
    "Division":"MAKINDU",
    "LOCATION":"MAKINDU",
    "Sub-Location":"MANYATTAMAKUENI",
    "Facility Type":1,
    "Agency":"MOH"
    }
  },
  {
    "type": "Feature",
    "geometry": {
       "type": "Point",
       "coordinates":  [ 37.62703,-1.78103 ]
    },
    "properties": {
    "Facility Number":45,
    "Facility Name":"MAKUENI DISTRICT HOSPITAL",
    "HMIS":1042,
    "Province":"EASTERN",
    "District":"MAKUENI",
    "Division":"WOTE",
    "LOCATION":"WOTE",
    "Sub-Location":"UNOA",
    "Facility Type":1,
    "Agency":"MOH"
    }
  },
  {
    "type": "Feature",
    "geometry": {
       "type": "Point",
       "coordinates":  [ 37.45319,-1.65649 ]
    },
    "properties": {
    "Facility Number":53,
    "Facility Name":"MBOONI  SDH",
    "HMIS":1028,
    "Province":"EASTERN",
    "District":"MAKUENI",
    "Division":"MBOONI",
    "LOCATION":"MBOONI",
    "Sub-Location":"MUTITUMAKUENI",
    "Facility Type":1,
    "Agency":"MOH"
    }
  },
  {
    "type": "Feature",
    "geometry": {
       "type": "Point",
       "coordinates":  [ 37.35991,-1.78343 ]
    },
    "properties": {
    "Facility Number":72,
    "Facility Name":"NUNGUNI SDH",
    "HMIS":1031,
    "Province":"EASTERN",
    "District":"MAKUENI",
    "Division":"KILUNGU",
    "LOCATION":"KITHEMBE",
    "Sub-Location":"NDUUMAKUENI",
    "Facility Type":1,
    "Agency":"MOH"
    }
  },
  {
    "type": "Feature",
    "geometry": {
       "type": "Point",
       "coordinates":  [ 37.8004,1.6001 ]
    },
    "properties": {
    "Facility Number":15,
    "Facility Name":"LAISAMIS MISS. HOSPITAL, DIOCESE OF MARSABIT",
    "HMIS":1067,
    "Province":"EASTERN",
    "District":"MARSABIT",
    "Division":"LAISAMIS",
    "LOCATION":"LAISAMIS",
    "Sub-Location":"LAISAMIS",
    "Facility Type":1,
    "Agency":"MISS"
    }
  },
  {
    "type": "Feature",
    "geometry": {
       "type": "Point",
       "coordinates":  [ 37.985249,2.324839 ]
    },
    "properties": {
    "Facility Number":21,
    "Facility Name":"MARSABIT DISTRICT HOSPITAL",
    "HMIS":1068,
    "Province":"EASTERN",
    "District":"MARSABIT",
    "Division":"CENTRAL",
    "LOCATION":"NAGAYO",
    "Sub-Location":"MAJENGOMARSABIT",
    "Facility Type":1,
    "Agency":"MOH"
    }
  },
  {
    "type": "Feature",
    "geometry": {
       "type": "Point",
       "coordinates":  [ 37.7833,-0.452179 ]
    },
    "properties": {
    "Facility Number":5,
    "Facility Name":"ISHIARA SUB-DISTRICT HOSPITAL",
    "HMIS":841,
    "Province":"EASTERN",
    "District":"MBEERE",
    "Division":"EVURORE",
    "LOCATION":"ISHIARA",
    "Sub-Location":"EVURORE",
    "Facility Type":1,
    "Agency":"MOH"
    }
  },
  {
    "type": "Feature",
    "geometry": {
       "type": "Point",
       "coordinates":  [ 37.640991,-0.575225 ]
    },
    "properties": {
    "Facility Number":22,
    "Facility Name":"MBEERE DISTRICT HOSP",
    "HMIS":843,
    "Province":"EASTERN",
    "District":"MBEERE",
    "Division":"SIAKAGO",
    "LOCATION":"NTHAWA",
    "Sub-Location":"SIAKAGO",
    "Facility Type":1,
    "Agency":"MOH"
    }
  },
  {
    "type": "Feature",
    "geometry": {
       "type": "Point",
       "coordinates":  [ 37.48,-0.75 ]
    },
    "properties": {
    "Facility Number":51,
    "Facility Name":"MWEA COTTAGE HOSPITAL",
    "HMIS":0,
    "Province":"EASTERN",
    "District":"MBEERE",
    "Division":"MWEA",
    "LOCATION":"MAKIMA",
    "Sub-Location":"MWEA",
    "Facility Type":1,
    "Agency":"MISS"
    }
  },
  {
    "type": "Feature",
    "geometry": {
       "type": "Point",
       "coordinates":  [ 39.026077,3.499712 ]
    },
    "properties": {
    "Facility Number":7,
    "Facility Name":"MOYALE DISTRICT HOSPITAL",
    "HMIS":1069,
    "Province":"EASTERN",
    "District":"MOYALE",
    "Division":"CENTRAL",
    "LOCATION":"BUTIYE",
    "Sub-Location":"BUTIYE",
    "Facility Type":1,
    "Agency":"MOH"
    }
  },
  {
    "type": "Feature",
    "geometry": {
       "type": "Point",
       "coordinates":  [ 38.672035,3.288957 ]
    },
    "properties": {
    "Facility Number":8,
    "Facility Name":"SOLOLO MISS. HOSPITAL",
    "HMIS":1070,
    "Province":"EASTERN",
    "District":"MOYALE",
    "Division":"OBBU",
    "LOCATION":"SOLOLO MAKUTANO",
    "Sub-Location":"SOLOLO MAKUTANO",
    "Facility Type":1,
    "Agency":"MISS"
    }
  },
  {
    "type": "Feature",
    "geometry": {
       "type": "Point",
       "coordinates":  [ 38.16232,-0.53231 ]
    },
    "properties": {
    "Facility Number":18,
    "Facility Name":"KYUSO SUB-DISTRICT HOSP",
    "HMIS":4204,
    "Province":"EASTERN",
    "District":"MWINGI",
    "Division":"KYUSO",
    "LOCATION":"KIMANGAO",
    "Sub-Location":"KIMANGAO",
    "Facility Type":1,
    "Agency":"MOH"
    }
  },
  {
    "type": "Feature",
    "geometry": {
       "type": "Point",
       "coordinates":  [ 38.0062,-1.08919 ]
    },
    "properties": {
    "Facility Number":20,
    "Facility Name":"MIGWANI SUB-DISTRICT HOSP",
    "HMIS":923,
    "Province":"EASTERN",
    "District":"MWINGI",
    "Division":"MIGWANI",
    "LOCATION":"MIGWANI",
    "Sub-Location":"KALILUNIMWINGI",
    "Facility Type":1,
    "Agency":"MOH"
    }
  },
  {
    "type": "Feature",
    "geometry": {
       "type": "Point",
       "coordinates":  [ 38.0673,-0.9334 ]
    },
    "properties": {
    "Facility Number":24,
    "Facility Name":"MWINGI DISTRICT HOSPITAL",
    "HMIS":932,
    "Province":"EASTERN",
    "District":"MWINGI",
    "Division":"CENTRAL",
    "LOCATION":"MWINGI",
    "Sub-Location":"KYANIKAMWINGI",
    "Facility Type":1,
    "Agency":"MOH"
    }
  },
  {
    "type": "Feature",
    "geometry": {
       "type": "Point",
       "coordinates":  [ 37.9335,0.2332 ]
    },
    "properties": {
    "Facility Number":19,
    "Facility Name":"MAUA METHODIST HOSPITAL",
    "HMIS":1180,
    "Province":"EASTERN",
    "District":"NORTH MERU",
    "Division":"IGEMBE CENTRAL",
    "LOCATION":"MAUA",
    "Sub-Location":"KAIBU",
    "Facility Type":1,
    "Agency":"MISS"
    }
  },
  {
    "type": "Feature",
    "geometry": {
       "type": "Point",
       "coordinates":  [ 37.7912,0.14875 ]
    },
    "properties": {
    "Facility Number":22,
    "Facility Name":"MIATHENE SUB-DISTRICT HOSPITAL",
    "HMIS":1172,
    "Province":"EASTERN",
    "District":"NORTH MERU",
    "Division":"TIGANIA WEST",
    "LOCATION":"MIATHENE",
    "Sub-Location":"MIATHENE",
    "Facility Type":1,
    "Agency":"MOH"
    }
  },
  {
    "type": "Feature",
    "geometry": {
       "type": "Point",
       "coordinates":  [ 37.834147,0.126174 ]
    },
    "properties": {
    "Facility Number":23,
    "Facility Name":"MIKINDURI COTTAGE HOSPITAL",
    "HMIS":0,
    "Province":"EASTERN",
    "District":"NORTH MERU",
    "Division":"TIGANIA CENTRAL",
    "LOCATION":"MIKINDURI WEST",
    "Sub-Location":"ANJUKI",
    "Facility Type":1,
    "Agency":"MISS"
    }
  },
  {
    "type": "Feature",
    "geometry": {
       "type": "Point",
       "coordinates":  [ 37.93232,0.242123 ]
    },
    "properties": {
    "Facility Number":33,
    "Facility Name":"NYAMBENE DISTRICT HOSPITAL",
    "HMIS":4423,
    "Province":"EASTERN",
    "District":"NORTH MERU",
    "Division":"IGEMBE CENTRAL",
    "LOCATION":"MAUA",
    "Sub-Location":"KAIBU",
    "Facility Type":1,
    "Agency":"MOH"
    }
  },
  {
    "type": "Feature",
    "geometry": {
       "type": "Point",
       "coordinates":  [ 37.783821,0.20715 ]
    },
    "properties": {
    "Facility Number":36,
    "Facility Name":"TIGANIA CATHOLIC HOSPITAL",
    "HMIS":1183,
    "Province":"EASTERN",
    "District":"NORTH MERU",
    "Division":"TIGANIA NORTH",
    "LOCATION":"MUTHARA",
    "Sub-Location":"ATHANJA",
    "Facility Type":1,
    "Agency":"MISS"
    }
  },
  {
    "type": "Feature",
    "geometry": {
       "type": "Point",
       "coordinates":  [ 37.648978,-0.32926 ]
    },
    "properties": {
    "Facility Number":1,
    "Facility Name":"CHUKA CONSOLATA COTTAGE HOSPITAL",
    "HMIS":1166,
    "Province":"EASTERN",
    "District":"SOUTH MERU",
    "Division":"CHUKA",
    "LOCATION":"KIANG'ONDU",
    "Sub-Location":"KIANG'ONDU",
    "Facility Type":1,
    "Agency":"MISS"
    }
  },
  {
    "type": "Feature",
    "geometry": {
       "type": "Point",
       "coordinates":  [ 37.645496,-0.32748 ]
    },
    "properties": {
    "Facility Number":2,
    "Facility Name":"CHUKA HOSPITAL",
    "HMIS":1179,
    "Province":"EASTERN",
    "District":"SOUTH MERU",
    "Division":"CHUKA",
    "LOCATION":"KIANG'ONDU",
    "Sub-Location":"KIANG'ONDU",
    "Facility Type":1,
    "Agency":"MOH"
    }
  },
  {
    "type": "Feature",
    "geometry": {
       "type": "Point",
       "coordinates":  [ 37.751235,-0.23523 ]
    },
    "properties": {
    "Facility Number":34,
    "Facility Name":"MAGUTUNI SUB-DISTRICT HOSPITAL",
    "HMIS":1126,
    "Province":"EASTERN",
    "District":"SOUTH MERU",
    "Division":"MWIMBI",
    "LOCATION":"KIERA",
    "Sub-Location":"MAGUTUNI",
    "Facility Type":1,
    "Agency":"MOH"
    }
  },
  {
    "type": "Feature",
    "geometry": {
       "type": "Point",
       "coordinates":  [ 37.6065,-0.21121 ]
    },
    "properties": {
    "Facility Number":47,
    "Facility Name":"P.C.E.A. CHOGORIA MISS. HOSP",
    "HMIS":1178,
    "Province":"EASTERN",
    "District":"SOUTH MERU",
    "Division":"MWIMBI",
    "LOCATION":"CHOGORIA",
    "Sub-Location":"CHOGORIA",
    "Facility Type":1,
    "Agency":"MISS"
    }
  },
  {
    "type": "Feature",
    "geometry": {
       "type": "Point",
       "coordinates":  [ 37.91243,-0.31234 ]
    },
    "properties": {
    "Facility Number":11,
    "Facility Name":"MATIRI MISSION HOSPITAL",
    "HMIS":3556,
    "Province":"EASTERN",
    "District":"THARAKA",
    "Division":"SOUTH THARAKA",
    "LOCATION":"CHIAKARIGA",
    "Sub-Location":"CHIAKARIGA",
    "Facility Type":1,
    "Agency":"MISS"
    }
  },
  {
    "type": "Feature",
    "geometry": {
       "type": "Point",
       "coordinates":  [ 37.97,-0.16 ]
    },
    "properties": {
    "Facility Number":9,
    "Facility Name":"THARAKA DISTRICT HOSPITAL",
    "HMIS":1170,
    "Province":"EASTERN",
    "District":"THARAKA",
    "Division":"CENTRAL THARAKA",
    "LOCATION":"MARIMANTI",
    "Sub-Location":"KIRANGARE",
    "Facility Type":1,
    "Agency":"MOH"
    }
  },
  {
    "type": "Feature",
    "geometry": {
       "type": "Point",
       "coordinates":  [ 40.342856,0.150541 ]
    },
    "properties": {
    "Facility Number":8,
    "Facility Name":"DAGAHALEY HOSPITAL",
    "HMIS":2512,
    "Province":"N. EASTERN",
    "District":"GARISSA",
    "Division":"DADAAB",
    "LOCATION":"DAGAHALEY",
    "Sub-Location":"DAGAHALEYGARISSA",
    "Facility Type":1,
    "Agency":"MISS"
    }
  },
  {
    "type": "Feature",
    "geometry": {
       "type": "Point",
       "coordinates":  [ 40.371544,0.01613 ]
    },
    "properties": {
    "Facility Number":12,
    "Facility Name":"HAGADERA HOSPITAL",
    "HMIS":2513,
    "Province":"N. EASTERN",
    "District":"GARISSA",
    "Division":"JARAJILA",
    "LOCATION":"WELMERER",
    "Sub-Location":"WELMERER",
    "Facility Type":1,
    "Agency":"MISS"
    }
  },
  {
    "type": "Feature",
    "geometry": {
       "type": "Point",
       "coordinates":  [ 40.32,0.07 ]
    },
    "properties": {
    "Facility Number":15,
    "Facility Name":"IFO HOSPITAL",
    "HMIS":2511,
    "Province":"N. EASTERN",
    "District":"GARISSA",
    "Division":"DADAAB",
    "LOCATION":"DADAAB",
    "Sub-Location":"DADAAB",
    "Facility Type":1,
    "Agency":"MISS"
    }
  },
  {
    "type": "Feature",
    "geometry": {
       "type": "Point",
       "coordinates":  [ 41.861814,3.954424 ]
    },
    "properties": {
    "Facility Number":12,
    "Facility Name":"MANDERA DISTRICT HOSPITAL",
    "HMIS":1215,
    "Province":"N. EASTERN",
    "District":"MANDERA",
    "Division":"CENTRAL",
    "LOCATION":"BULLA JAMHURIA",
    "Sub-Location":"BULLA POWER",
    "Facility Type":1,
    "Agency":"MOH"
    }
  },
  {
    "type": "Feature",
    "geometry": {
       "type": "Point",
       "coordinates":  [ 40.0396,1.6909 ]
    },
    "properties": {
    "Facility Number":26,
    "Facility Name":"WAJIR DISTRICT HOSPITAL",
    "HMIS":1231,
    "Province":"N. EASTERN",
    "District":"WAJIR",
    "Division":"GRIFTU",
    "LOCATION":"KUKALA",
    "Sub-Location":"KUKALA",
    "Facility Type":1,
    "Agency":"MOH"
    }
  },
  {
    "type": "Feature",
    "geometry": {
       "type": "Point",
       "coordinates":  [ 36.830249,-1.253175 ]
    },
    "properties": {
    "Facility Number":33,
    "Facility Name":"GETRUDES GARDENS CHILDREN'S HOSPITAL",
    "HMIS":151,
    "Province":"NAIROBI",
    "District":"NAIROBI",
    "Division":"WESTLANDS",
    "LOCATION":"HIGHRIDGE",
    "Sub-Location":"MUTHAIGA",
    "Facility Type":1,
    "Agency":"MISS"
    }
  },
  {
    "type": "Feature",
    "geometry": {
       "type": "Point",
       "coordinates":  [ 36.833478,-1.305393 ]
    },
    "properties": {
    "Facility Number":84,
    "Facility Name":"MATER MISERICORDIAE HOSPITAL",
    "HMIS":159,
    "Province":"NAIROBI",
    "District":"NAIROBI",
    "Division":"MAKADARA",
    "LOCATION":"MUKURU NYAYO",
    "Sub-Location":"NAIROBI SOUTH",
    "Facility Type":1,
    "Agency":"MISS"
    }
  },
  {
    "type": "Feature",
    "geometry": {
       "type": "Point",
       "coordinates":  [ 36.844302,-1.259489 ]
    },
    "properties": {
    "Facility Number":87,
    "Facility Name":"MATHARI MENTAL HOSPITAL",
    "HMIS":160,
    "Province":"NAIROBI",
    "District":"NAIROBI",
    "Division":"CENTRAL",
    "LOCATION":"MATHARE",
    "Sub-Location":"MATHARE",
    "Facility Type":1,
    "Agency":"MOH"
    }
  },
  {
    "type": "Feature",
    "geometry": {
       "type": "Point",
       "coordinates":  [ 36.802242,-1.307925 ]
    },
    "properties": {
    "Facility Number":88,
    "Facility Name":"MBAGATHI DISTRICT HOSPITAL",
    "HMIS":154,
    "Province":"NAIROBI",
    "District":"NAIROBI",
    "Division":"DAGORETTI",
    "LOCATION":"KENYATTA/GOLF COURSE",
    "Sub-Location":"GOLF COURSE",
    "Facility Type":1,
    "Agency":"MOH"
    }
  },
  {
    "type": "Feature",
    "geometry": {
       "type": "Point",
       "coordinates":  [ 34.35579,-0.06953 ]
    },
    "properties": {
    "Facility Number":3,
    "Facility Name":"ARO COMMUNITY HOSP.",
    "HMIS":0,
    "Province":"NYANZA",
    "District":"BONDO",
    "Division":"BONDO",
    "LOCATION":"NORTH SAKWA",
    "Sub-Location":"BAR CHANDO",
    "Facility Type":1,
    "Agency":"NGO"
    }
  },
  {
    "type": "Feature",
    "geometry": {
       "type": "Point",
       "coordinates":  [ 34.2745,-0.09021 ]
    },
    "properties": {
    "Facility Number":4,
    "Facility Name":"BONDO DISTRICT HOSPITAL",
    "HMIS":1367,
    "Province":"NYANZA",
    "District":"BONDO",
    "Division":"BONDO",
    "LOCATION":"BONDO TOWNSHIP",
    "Sub-Location":"NYAWITABONDO",
    "Facility Type":1,
    "Agency":"MOH"
    }
  },
  {
    "type": "Feature",
    "geometry": {
       "type": "Point",
       "coordinates":  [ 34.35698,-0.13782 ]
    },
    "properties": {
    "Facility Number":25,
    "Facility Name":"ST. ELIZABETH LWAK MISS. HOSPITAL",
    "HMIS":0,
    "Province":"NYANZA",
    "District":"BONDO",
    "Division":"RARIEDA",
    "LOCATION":"CENTRAL ASEMBO",
    "Sub-Location":"MEMBA",
    "Facility Type":1,
    "Agency":"MISS"
    }
  },
  {
    "type": "Feature",
    "geometry": {
       "type": "Point",
       "coordinates":  [ 34.725517,-0.793983 ]
    },
    "properties": {
    "Facility Number":23,
    "Facility Name":"OGEMBO DISTRICT HOSPITAL",
    "HMIS":1261,
    "Province":"NYANZA",
    "District":"GUCHA",
    "Division":"OGEMBO",
    "LOCATION":"MAJOGE CHACHE",
    "Sub-Location":"NYANSAKIA",
    "Facility Type":1,
    "Agency":"MOH"
    }
  },
  {
    "type": "Feature",
    "geometry": {
       "type": "Point",
       "coordinates":  [ 34.6665,-0.744517 ]
    },
    "properties": {
    "Facility Number":28,
    "Facility Name":"TABAKA MISSION HOSPITAL",
    "HMIS":1266,
    "Province":"NYANZA",
    "District":"GUCHA",
    "Division":"NYAMARAMBE",
    "LOCATION":"S. MUGIRANGO CHACHE",
    "Sub-Location":"TABAKA",
    "Facility Type":1,
    "Agency":"MISS"
    }
  },
  {
    "type": "Feature",
    "geometry": {
       "type": "Point",
       "coordinates":  [ 34.4599,-0.52474 ]
    },
    "properties": {
    "Facility Number":5,
    "Facility Name":"HOMA BAY DISTRICT HOSPITAL",
    "HMIS":1470,
    "Province":"NYANZA",
    "District":"HOMA BAY",
    "Division":"ASEGO",
    "LOCATION":"HOMA BAY TOWN",
    "Sub-Location":"TOWNHOMABAY",
    "Facility Type":1,
    "Agency":"MOH"
    }
  },
  {
    "type": "Feature",
    "geometry": {
       "type": "Point",
       "coordinates":  [ 34.6169,-0.4932 ]
    },
    "properties": {
    "Facility Number":13,
    "Facility Name":"MANYATTA S D A HOSPITAL",
    "HMIS":3128,
    "Province":"NYANZA",
    "District":"HOMA BAY",
    "Division":"RANGWE",
    "LOCATION":"EAST KAGAN",
    "Sub-Location":"KOMENYA",
    "Facility Type":1,
    "Agency":"MISS"
    }
  },
  {
    "type": "Feature",
    "geometry": {
       "type": "Point",
       "coordinates":  [ 34.9087,-0.8712 ]
    },
    "properties": {
    "Facility Number":3,
    "Facility Name":"GESUSU SUB DISTRICT HOSPITAL",
    "HMIS":3769,
    "Province":"NYANZA",
    "District":"KISII CENTRAL",
    "Division":"MASABA",
    "LOCATION":"NYARIBARI MASABA",
    "Sub-Location":"GESUSU",
    "Facility Type":1,
    "Agency":"MOH"
    }
  },
  {
    "type": "Feature",
    "geometry": {
       "type": "Point",
       "coordinates":  [ 34.8467,-0.731217 ]
    },
    "properties": {
    "Facility Number":9,
    "Facility Name":"KEUMBU SUB DISTRICT HOSPITAL",
    "HMIS":1257,
    "Province":"NYANZA",
    "District":"KISII CENTRAL",
    "Division":"KEUMBU",
    "LOCATION":"KEUMBU",
    "Sub-Location":"NYAMWARE",
    "Facility Type":1,
    "Agency":"MOH"
    }
  },
  {
    "type": "Feature",
    "geometry": {
       "type": "Point",
       "coordinates":  [ 34.7704,-0.66815 ]
    },
    "properties": {
    "Facility Number":12,
    "Facility Name":"KISII DISTRICT HOSPITAL",
    "HMIS":1265,
    "Province":"NYANZA",
    "District":"KISII CENTRAL",
    "Division":"TOWNSHIP",
    "LOCATION":"TOWNSHIP",
    "Sub-Location":"TOWNSHIPKISII",
    "Facility Type":1,
    "Agency":"MOH"
    }
  },
  {
    "type": "Feature",
    "geometry": {
       "type": "Point",
       "coordinates":  [ 34.975,-0.693 ]
    },
    "properties": {
    "Facility Number":21,
    "Facility Name":"KIBIRIGO MISS HOSPITAL",
    "HMIS":0,
    "Province":"NYANZA",
    "District":"KISII NORTH",
    "Division":"RIGOMA",
    "LOCATION":"GESIMA",
    "Sub-Location":"RIAMONI",
    "Facility Type":1,
    "Agency":"MISS"
    }
  },
  {
    "type": "Feature",
    "geometry": {
       "type": "Point",
       "coordinates":  [ 34.9414,-0.67554 ]
    },
    "properties": {
    "Facility Number":37,
    "Facility Name":"NYAMIRA DISTRICT HOSPITAL",
    "HMIS":1512,
    "Province":"NYANZA",
    "District":"KISII NORTH",
    "Division":"RIGOMA",
    "LOCATION":"GESIMA",
    "Sub-Location":"NYATIENO",
    "Facility Type":1,
    "Agency":"MOH"
    }
  },
  {
    "type": "Feature",
    "geometry": {
       "type": "Point",
       "coordinates":  [ 34.7606,-0.105021 ]
    },
    "properties": {
    "Facility Number":14,
    "Facility Name":"KISUMU DISTRICT HOSPITAL",
    "HMIS":1330,
    "Province":"NYANZA",
    "District":"KISUMU",
    "Division":"WINAM",
    "LOCATION":"TOWNSHIP",
    "Sub-Location":"SOUTHERN",
    "Facility Type":1,
    "Agency":"MOH"
    }
  },
  {
    "type": "Feature",
    "geometry": {
       "type": "Point",
       "coordinates":  [ 34.7817,-0.116 ]
    },
    "properties": {
    "Facility Number":16,
    "Facility Name":"LUMUMBA HOSPITAL",
    "HMIS":1317,
    "Province":"NYANZA",
    "District":"KISUMU",
    "Division":"WINAM",
    "LOCATION":"WEST KOLWA",
    "Sub-Location":"NYALENDA 'A'",
    "Facility Type":1,
    "Agency":"MISS"
    }
  },
  {
    "type": "Feature",
    "geometry": {
       "type": "Point",
       "coordinates":  [ 34.61018,0.00348 ]
    },
    "properties": {
    "Facility Number":18,
    "Facility Name":"MASENO MISS. HOSPITAL",
    "HMIS":1327,
    "Province":"NYANZA",
    "District":"KISUMU",
    "Division":"MASENO",
    "LOCATION":"N.W. KISUMU",
    "Sub-Location":"EAST KARATENG",
    "Facility Type":1,
    "Agency":"MISS"
    }
  },
  {
    "type": "Feature",
    "geometry": {
       "type": "Point",
       "coordinates":  [ 34.76971,-0.0422 ]
    },
    "properties": {
    "Facility Number":36,
    "Facility Name":"ST. MONICAS HOSPITAL KISUMU",
    "HMIS":0,
    "Province":"NYANZA",
    "District":"KISUMU",
    "Division":"WINAM",
    "LOCATION":"WEST KAJULU",
    "Sub-Location":"KONYA",
    "Facility Type":1,
    "Agency":"MISS"
    }
  },
  {
    "type": "Feature",
    "geometry": {
       "type": "Point",
       "coordinates":  [ 34.7576,-0.117106 ]
    },
    "properties": {
    "Facility Number":38,
    "Facility Name":"VICTORIA HOSPITAL",
    "HMIS":1331,
    "Province":"NYANZA",
    "District":"KISUMU",
    "Division":"WINAM",
    "LOCATION":"WEST KOLWA",
    "Sub-Location":"NYALENDA 'B'",
    "Facility Type":1,
    "Agency":"MOH"
    }
  },
  {
    "type": "Feature",
    "geometry": {
       "type": "Point",
       "coordinates":  [ 34.6338,-1.1765 ]
    },
    "properties": {
    "Facility Number":9,
    "Facility Name":"KEHANCHA DISTRICT HOSPITAL",
    "HMIS":1444,
    "Province":"NYANZA",
    "District":"KURIA",
    "Division":"KEGONGA",
    "LOCATION":"MAETA",
    "Sub-Location":"NYAITARA",
    "Facility Type":1,
    "Agency":"MOH"
    }
  },
  {
    "type": "Feature",
    "geometry": {
       "type": "Point",
       "coordinates":  [ 34.4694,-1.06321 ]
    },
    "properties": {
    "Facility Number":29,
    "Facility Name":"MIGORI DISTRICT HOSPITAL",
    "HMIS":1451,
    "Province":"NYANZA",
    "District":"MIGORI",
    "Division":"SUBA EAST",
    "LOCATION":"SUNA RAGANA",
    "Sub-Location":"MARINDI",
    "Facility Type":1,
    "Agency":"MOH"
    }
  },
  {
    "type": "Feature",
    "geometry": {
       "type": "Point",
       "coordinates":  [ 34.4333,-1.08333 ]
    },
    "properties": {
    "Facility Number":57,
    "Facility Name":"ST. JOSEPH OMBO HOSPITAL",
    "HMIS":2459,
    "Province":"NYANZA",
    "District":"MIGORI",
    "Division":"SUBA WEST",
    "LOCATION":"SUNA SOUTH",
    "Sub-Location":"SAGERO",
    "Facility Type":1,
    "Agency":"MISS"
    }
  },
  {
    "type": "Feature",
    "geometry": {
       "type": "Point",
       "coordinates":  [ 34.9234,-0.165363 ]
    },
    "properties": {
    "Facility Number":1,
    "Facility Name":"AHERO HOSPITAL",
    "HMIS":1316,
    "Province":"NYANZA",
    "District":"NYANDO",
    "Division":"NYANDO",
    "LOCATION":"KAKOLA",
    "Sub-Location":"TURANYANDO",
    "Facility Type":1,
    "Agency":"MOH"
    }
  },
  {
    "type": "Feature",
    "geometry": {
       "type": "Point",
       "coordinates":  [ 35.1889,-0.154993 ]
    },
    "properties": {
    "Facility Number":19,
    "Facility Name":"MUHORONI SUB-DISTRICT HOSP.",
    "HMIS":1339,
    "Province":"NYANZA",
    "District":"NYANDO",
    "Division":"MUHORONI",
    "LOCATION":"GOD NYITHINDO",
    "Sub-Location":"OREGO",
    "Facility Type":1,
    "Agency":"MOH"
    }
  },
  {
    "type": "Feature",
    "geometry": {
       "type": "Point",
       "coordinates":  [ 34.97882,-0.37815 ]
    },
    "properties": {
    "Facility Number":20,
    "Facility Name":"NYABONDO MISS. HOSPITAL",
    "HMIS":1329,
    "Province":"NYANZA",
    "District":"NYANDO",
    "Division":"UPPER NYAKACH",
    "LOCATION":"SOUTH NYAKACH",
    "Sub-Location":"EAST KADIANG'A",
    "Facility Type":1,
    "Agency":"MISS"
    }
  },
  {
    "type": "Feature",
    "geometry": {
       "type": "Point",
       "coordinates":  [ 34.9355,-0.313172 ]
    },
    "properties": {
    "Facility Number":30,
    "Facility Name":"PAP ONDITI HOSP",
    "HMIS":1324,
    "Province":"NYANZA",
    "District":"NYANDO",
    "Division":"LOWER NYAKACH",
    "LOCATION":"PAP ONDITI",
    "Sub-Location":"KABODHO EAST",
    "Facility Type":1,
    "Agency":"MOH"
    }
  },
  {
    "type": "Feature",
    "geometry": {
       "type": "Point",
       "coordinates":  [ 34.6635,-0.400901 ]
    },
    "properties": {
    "Facility Number":6,
    "Facility Name":"GENDIA MISSION HOSPITAL",
    "HMIS":0,
    "Province":"NYANZA",
    "District":"RACHUONYO",
    "Division":"EAST KARACHUONYO",
    "LOCATION":"NORTH KARACHUONYO",
    "Sub-Location":"KAKWAJUOK UPPER",
    "Facility Type":1,
    "Agency":"MISS"
    }
  },
  {
    "type": "Feature",
    "geometry": {
       "type": "Point",
       "coordinates":  [ 34.6481,-0.36543 ]
    },
    "properties": {
    "Facility Number":12,
    "Facility Name":"KENDU BAY MISS. HOSPITAL",
    "HMIS":1471,
    "Province":"NYANZA",
    "District":"RACHUONYO",
    "Division":"EAST KARACHUONYO",
    "LOCATION":"NORTH EAST KARACHUON",
    "Sub-Location":"KONYANGO MAJIERI",
    "Facility Type":1,
    "Agency":"MISS"
    }
  },
  {
    "type": "Feature",
    "geometry": {
       "type": "Point",
       "coordinates":  [ 34.6335,-0.36046 ]
    },
    "properties": {
    "Facility Number":13,
    "Facility Name":"KENDU SUB-DISTRICT HOSPITAL",
    "HMIS":1445,
    "Province":"NYANZA",
    "District":"RACHUONYO",
    "Division":"EAST KARACHUONYO",
    "LOCATION":"NORTH EAST KARACHUON",
    "Sub-Location":"KONYANGO MAJIERI",
    "Facility Type":1,
    "Agency":"MOH"
    }
  },
  {
    "type": "Feature",
    "geometry": {
       "type": "Point",
       "coordinates":  [ 34.7295,-0.4921 ]
    },
    "properties": {
    "Facility Number":33,
    "Facility Name":"OYUGIS DISTRICT HOSPITAL",
    "HMIS":1457,
    "Province":"NYANZA",
    "District":"RACHUONYO",
    "Division":"KASIPUL",
    "LOCATION":"WEST KAMAGAK",
    "Sub-Location":"KAMUMA",
    "Facility Type":1,
    "Agency":"MOH"
    }
  },
  {
    "type": "Feature",
    "geometry": {
       "type": "Point",
       "coordinates":  [ 34.33179,0.15529 ]
    },
    "properties": {
    "Facility Number":29,
    "Facility Name":"RANGALA MISSION HOSPITAL",
    "HMIS":1377,
    "Province":"NYANZA",
    "District":"SIAYA",
    "Division":"UGUNJA",
    "LOCATION":"SOUTH UGENYA",
    "Sub-Location":"RANGALA",
    "Facility Type":1,
    "Agency":"MISS"
    }
  },
  {
    "type": "Feature",
    "geometry": {
       "type": "Point",
       "coordinates":  [ 34.22549,0.25934 ]
    },
    "properties": {
    "Facility Number":33,
    "Facility Name":"SEGA MISSION HOSPITAL",
    "HMIS":1371,
    "Province":"NYANZA",
    "District":"SIAYA",
    "Division":"UKWALA",
    "LOCATION":"NORTH UGENYA",
    "Sub-Location":"SEGASIAYA",
    "Facility Type":1,
    "Agency":"MISS"
    }
  },
  {
    "type": "Feature",
    "geometry": {
       "type": "Point",
       "coordinates":  [ 34.2839,0.063129 ]
    },
    "properties": {
    "Facility Number":34,
    "Facility Name":"SIAYA DISTRICT HOSPITAL",
    "HMIS":1379,
    "Province":"NYANZA",
    "District":"SIAYA",
    "Division":"KAREMO",
    "LOCATION":"TOWNSHIP",
    "Sub-Location":"MULAHA",
    "Facility Type":1,
    "Agency":"MOH"
    }
  },
  {
    "type": "Feature",
    "geometry": {
       "type": "Point",
       "coordinates":  [ 36.6759,-0.791728 ]
    },
    "properties": {
    "Facility Number":64,
    "Facility Name":"RAGIA HEALTH CENTRE",
    "HMIS":2449,
    "Province":"CENTRAL",
    "District":"KIAMBU",
    "Division":"LARI",
    "LOCATION":"KAMAE",
    "Sub-Location":"KAMAE",
    "Facility Type":3,
    "Agency":"MOH"
    }
  },
  {
    "type": "Feature",
    "geometry": {
       "type": "Point",
       "coordinates":  [ 34.5375,0.101019 ]
    },
    "properties": {
    "Facility Number":44,
    "Facility Name":"YALA SUB-DISTRICT HOSPITAL",
    "HMIS":1384,
    "Province":"NYANZA",
    "District":"SIAYA",
    "Division":"YALA",
    "LOCATION":"YALA TOWNSHIP",
    "Sub-Location":"SAURI",
    "Facility Type":1,
    "Agency":"MOH"
    }
  },
  {
    "type": "Feature",
    "geometry": {
       "type": "Point",
       "coordinates":  [ 34.08234,-0.63123 ]
    },
    "properties": {
    "Facility Number":3,
    "Facility Name":"KISEGI SUB-DISTRICT HOSPITAL",
    "HMIS":357,
    "Province":"NYANZA",
    "District":"SUBA",
    "Division":"GWASSI",
    "LOCATION":"GWASSI NORTH",
    "Sub-Location":"UTERERE",
    "Facility Type":1,
    "Agency":"MOH"
    }
  },
  {
    "type": "Feature",
    "geometry": {
       "type": "Point",
       "coordinates":  [ 34.1658,-0.541249 ]
    },
    "properties": {
    "Facility Number":15,
    "Facility Name":"SINDO RHDC  AGG. SUBA DISTRICT HOSPITAL",
    "HMIS":1474,
    "Province":"NYANZA",
    "District":"SUBA",
    "Division":"CENTRAL",
    "LOCATION":"KAKSINGRI WEST",
    "Sub-Location":"RANGWA EAST",
    "Facility Type":1,
    "Agency":"MOH"
    }
  },
  {
    "type": "Feature",
    "geometry": {
       "type": "Point",
       "coordinates":  [ 34.17231,-0.40123 ]
    },
    "properties": {
    "Facility Number":20,
    "Facility Name":"TOM MBOYA MEMORIAL DISTRICT HOSP, MBITA",
    "HMIS":1467,
    "Province":"NYANZA",
    "District":"SUBA",
    "Division":"MBITA",
    "LOCATION":"RUSINGA WEST",
    "Sub-Location":"KASWANGA",
    "Facility Type":1,
    "Agency":"MOH"
    }
  },
  {
    "type": "Feature",
    "geometry": {
       "type": "Point",
       "coordinates":  [ 35.735,0.4951 ]
    },
    "properties": {
    "Facility Number":15,
    "Facility Name":"KABARNET DISTRICT HOSPITAL",
    "HMIS":1988,
    "Province":"RIFT VALLEY",
    "District":"BARINGO",
    "Division":"KABARNET",
    "LOCATION":"KABARNET MOSOP",
    "Sub-Location":"KEWAMOI",
    "Facility Type":1,
    "Agency":"MOH"
    }
  },
  {
    "type": "Feature",
    "geometry": {
       "type": "Point",
       "coordinates":  [ 36.0901,1.159 ]
    },
    "properties": {
    "Facility Number":19,
    "Facility Name":"KAPEDO SUB-DISTRICT HOSPITAL",
    "HMIS":0,
    "Province":"RIFT VALLEY",
    "District":"BARINGO",
    "Division":"NGINYANG",
    "LOCATION":"RIBKWO",
    "Sub-Location":"KAPEDO WEST",
    "Facility Type":1,
    "Agency":"MOH"
    }
  },
  {
    "type": "Feature",
    "geometry": {
       "type": "Point",
       "coordinates":  [ 35.38941,-0.85793 ]
    },
    "properties": {
    "Facility Number":21,
    "Facility Name":"LONGISA DISTRICT HOSPITAL",
    "HMIS":1624,
    "Province":"RIFT VALLEY",
    "District":"BOMET",
    "Division":"LONGISA",
    "LOCATION":"CHEBOIN",
    "Sub-Location":"SAMITUK",
    "Facility Type":1,
    "Agency":"MOH"
    }
  },
  {
    "type": "Feature",
    "geometry": {
       "type": "Point",
       "coordinates":  [ 35.2973,-0.918919 ]
    },
    "properties": {
    "Facility Number":34,
    "Facility Name":"SIGOR SUB-DISTRICT HOSPITAL",
    "HMIS":1670,
    "Province":"RIFT VALLEY",
    "District":"BOMET",
    "Division":"SIGOR",
    "LOCATION":"SIGOR",
    "Sub-Location":"SIGOR",
    "Facility Type":1,
    "Agency":"MOH"
    }
  },
  {
    "type": "Feature",
    "geometry": {
       "type": "Point",
       "coordinates":  [ 35.3317,-0.71221 ]
    },
    "properties": {
    "Facility Number":42,
    "Facility Name":"TENWEK MISS. HOSPITAL",
    "HMIS":1683,
    "Province":"RIFT VALLEY",
    "District":"BOMET",
    "Division":"BOMET CENTRAL",
    "LOCATION":"SINGORWET",
    "Sub-Location":"AISAK",
    "Facility Type":1,
    "Agency":"MISS"
    }
  },
  {
    "type": "Feature",
    "geometry": {
       "type": "Point",
       "coordinates":  [ 35.3878,-0.610343 ]
    },
    "properties": {
    "Facility Number":6,
    "Facility Name":"CHEPTALAL SUB-DISRICT HOSPITAL",
    "HMIS":1577,
    "Province":"RIFT VALLEY",
    "District":"BURET",
    "Division":"KONOIN",
    "LOCATION":"CHEPTALAL",
    "Sub-Location":"TOBOINO",
    "Facility Type":1,
    "Agency":"MOH"
    }
  },
  {
    "type": "Feature",
    "geometry": {
       "type": "Point",
       "coordinates":  [ 35.19319,-0.62738 ]
    },
    "properties": {
    "Facility Number":9,
    "Facility Name":"KAPKATET DISTRICT HOSPITAL",
    "HMIS":6176,
    "Province":"RIFT VALLEY",
    "District":"BURET",
    "Division":"BURET",
    "LOCATION":"KAPKATET",
    "Sub-Location":"ITOIK",
    "Facility Type":1,
    "Agency":"MOH"
    }
  },
  {
    "type": "Feature",
    "geometry": {
       "type": "Point",
       "coordinates":  [ 35.1384,-0.67435 ]
    },
    "properties": {
    "Facility Number":10,
    "Facility Name":"KAPLONG CATHOLIC HOSPITAL",
    "HMIS":1679,
    "Province":"RIFT VALLEY",
    "District":"BURET",
    "Division":"SOTIK",
    "LOCATION":"CHEMAGEL",
    "Sub-Location":"KAPLONG",
    "Facility Type":1,
    "Agency":"MISS"
    }
  },
  {
    "type": "Feature",
    "geometry": {
       "type": "Point",
       "coordinates":  [ 35.1853,-0.576894 ]
    },
    "properties": {
    "Facility Number":19,
    "Facility Name":"LITEIN AIC HOSPITAL",
    "HMIS":1681,
    "Province":"RIFT VALLEY",
    "District":"BURET",
    "Division":"BURET",
    "LOCATION":"LITEIN",
    "Sub-Location":"LITEIN",
    "Facility Type":1,
    "Agency":"MISS"
    }
  },
  {
    "type": "Feature",
    "geometry": {
       "type": "Point",
       "coordinates":  [ 36.7832,-1.8526 ]
    },
    "properties": {
    "Facility Number":30,
    "Facility Name":"KAJIADO DISTRICT HOSPITAL",
    "HMIS":1553,
    "Province":"RIFT VALLEY",
    "District":"KAJIADO",
    "Division":"CENTRAL",
    "LOCATION":"TOWNSHIP",
    "Sub-Location":"HOSPITALKAJIADO",
    "Facility Type":1,
    "Agency":"MOH"
    }
  },
  {
    "type": "Feature",
    "geometry": {
       "type": "Point",
       "coordinates":  [ 37.5549,-2.9356 ]
    },
    "properties": {
    "Facility Number":36,
    "Facility Name":"LOITOKITOK SUB-DISTRICT HOSP",
    "HMIS":1554,
    "Province":"RIFT VALLEY",
    "District":"KAJIADO",
    "Division":"LOITOKITOK",
    "LOCATION":"KUKU",
    "Sub-Location":"LOOLOPON",
    "Facility Type":1,
    "Agency":"MOH"
    }
  },
  {
    "type": "Feature",
    "geometry": {
       "type": "Point",
       "coordinates":  [ 35.5058,0.6743 ]
    },
    "properties": {
    "Facility Number":6,
    "Facility Name":"ITEN DISTRICT HOSPITAL",
    "HMIS":2042,
    "Province":"RIFT VALLEY",
    "District":"KEIYO",
    "Division":"KAMARINY",
    "LOCATION":"IRONG",
    "Sub-Location":"ITEN TOWNSHIP",
    "Facility Type":1,
    "Agency":"MOH"
    }
  },
  {
    "type": "Feature",
    "geometry": {
       "type": "Point",
       "coordinates":  [ 35.5439,0.469086 ]
    },
    "properties": {
    "Facility Number":16,
    "Facility Name":"KAPTARAKWA SUB-DISTRICT HOSP",
    "HMIS":2040,
    "Province":"RIFT VALLEY",
    "District":"KEIYO",
    "Division":"CHEPKORIO",
    "LOCATION":"KAPTARAKWA",
    "Sub-Location":"KAPTARAKWA",
    "Facility Type":1,
    "Agency":"MOH"
    }
  },
  {
    "type": "Feature",
    "geometry": {
       "type": "Point",
       "coordinates":  [ 0.00E+00,0.00E+00 ]
    },
    "properties": {
    "Facility Number":26,
    "Facility Name":"KARIRA HOSPITAL",
    "HMIS":391,
    "Province":"CENTRAL",
    "District":"KIRINYAGA",
    "Division":"",
    "LOCATION":"",
    "Sub-Location":"",
    "Facility Type":1,
    "Agency":"MISS"
    }
  },
  {
    "type": "Feature",
    "geometry": {
       "type": "Point",
       "coordinates":  [ 0.00E+00,0.00E+00 ]
    },
    "properties": {
    "Facility Number":26,
    "Facility Name":"M.E.W.A  HOSPITAL",
    "HMIS":4471,
    "Province":"COAST",
    "District":"MOMBASA",
    "Division":"",
    "LOCATION":"",
    "Sub-Location":"",
    "Facility Type":1,
    "Agency":"MISS"
    }
  },
  {
    "type": "Feature",
    "geometry": {
       "type": "Point",
       "coordinates":  [ 0.00E+00,0.00E+00 ]
    },
    "properties": {
    "Facility Number":38,
    "Facility Name":"OMBO MISSION HOSPITAL",
    "HMIS":0,
    "Province":"NYANZA",
    "District":"MIGORI",
    "Division":"",
    "LOCATION":"",
    "Sub-Location":"",
    "Facility Type":1,
    "Agency":"MISS"
    }
  },
  {
    "type": "Feature",
    "geometry": {
       "type": "Point",
       "coordinates":  [ 35.55123,0.26232 ]
    },
    "properties": {
    "Facility Number":28,
    "Facility Name":"KOCHOLWO SUB-DISTRICT HOSP",
    "HMIS":3501,
    "Province":"RIFT VALLEY",
    "District":"KEIYO",
    "Division":"CHEPKORIO",
    "LOCATION":"TUMEIYO",
    "Sub-Location":"CHEPKOSOM",
    "Facility Type":1,
    "Agency":"MOH"
    }
  },
  {
    "type": "Feature",
    "geometry": {
       "type": "Point",
       "coordinates":  [ 35.5163,0.6 ]
    },
    "properties": {
    "Facility Number":43,
    "Facility Name":"TAMBACH SUB-DISTRICT HOSPITAL",
    "HMIS":2044,
    "Province":"RIFT VALLEY",
    "District":"KEIYO",
    "Division":"TAMBACH",
    "LOCATION":"KIPTUILONG",
    "Sub-Location":"KAPTERIK",
    "Facility Type":1,
    "Agency":"MOH"
    }
  },
  {
    "type": "Feature",
    "geometry": {
       "type": "Point",
       "coordinates":  [ 35.27941,-0.36896 ]
    },
    "properties": {
    "Facility Number":21,
    "Facility Name":"KERICHO DISTRICT HOSPITAL",
    "HMIS":1680,
    "Province":"RIFT VALLEY",
    "District":"KERICHO",
    "Division":"AINAMOI",
    "LOCATION":"TOWNSHIP",
    "Sub-Location":"TOWNSHIPKERICHO",
    "Facility Type":1,
    "Agency":"MOH"
    }
  },
  {
    "type": "Feature",
    "geometry": {
       "type": "Point",
       "coordinates":  [ 35.266,-0.325202 ]
    },
    "properties": {
    "Facility Number":27,
    "Facility Name":"KIPCHIMCHIM MISSION HOSPITAL",
    "HMIS":1666,
    "Province":"RIFT VALLEY",
    "District":"KERICHO",
    "Division":"AINAMOI",
    "LOCATION":"AINAMOI",
    "Sub-Location":"KIPCHIMCHIM",
    "Facility Type":1,
    "Agency":"MISS"
    }
  },
  {
    "type": "Feature",
    "geometry": {
       "type": "Point",
       "coordinates":  [ 35.5893,-0.158796 ]
    },
    "properties": {
    "Facility Number":37,
    "Facility Name":"LONDIANI SUB-DISTRICT HOSPITAL",
    "HMIS":1682,
    "Province":"RIFT VALLEY",
    "District":"KERICHO",
    "Division":"LONDIANI",
    "LOCATION":"LONDIANI",
    "Sub-Location":"CHEPKONGONYKERI",
    "Facility Type":1,
    "Agency":"MOH"
    }
  },
  {
    "type": "Feature",
    "geometry": {
       "type": "Point",
       "coordinates":  [ 35.0476,-0.388777 ]
    },
    "properties": {
    "Facility Number":47,
    "Facility Name":"SIGOWET NYAYO HOSPITAL",
    "HMIS":1671,
    "Province":"RIFT VALLEY",
    "District":"KERICHO",
    "Division":"SIGOWET",
    "LOCATION":"KEBENETI",
    "Sub-Location":"SIGOWET",
    "Facility Type":1,
    "Agency":"MOH"
    }
  },
  {
    "type": "Feature",
    "geometry": {
       "type": "Point",
       "coordinates":  [ 36.7261,-1.21737 ]
    },
    "properties": {
    "Facility Number":70,
    "Facility Name":"WANGIGE HEALTH CENTRE",
    "HMIS":249,
    "Province":"CENTRAL",
    "District":"KIAMBU",
    "Division":"KIKUYU",
    "LOCATION":"NYATHUNA",
    "Sub-Location":"KARURAKIKUYU",
    "Facility Type":3,
    "Agency":"MOH"
    }
  },
  {
    "type": "Feature",
    "geometry": {
       "type": "Point",
       "coordinates":  [ 35.7167,0.05 ]
    },
    "properties": {
    "Facility Number":6,
    "Facility Name":"ELDAMA RAVINE DISTRICT HOSPITAL",
    "HMIS":1982,
    "Province":"RIFT VALLEY",
    "District":"KOIBATEK",
    "Division":"ELDAMA RAVINE",
    "LOCATION":"LEMBUS CENTRAL",
    "Sub-Location":"POROR/ARAMA",
    "Facility Type":1,
    "Agency":"MOH"
    }
  },
  {
    "type": "Feature",
    "geometry": {
       "type": "Point",
       "coordinates":  [ 35.7363,0.044839 ]
    },
    "properties": {
    "Facility Number":16,
    "Facility Name":"MERCY HOSPITAL",
    "HMIS":1990,
    "Province":"RIFT VALLEY",
    "District":"KOIBATEK",
    "Division":"ELDAMA RAVINE",
    "LOCATION":"ELDAMA RAVINE",
    "Sub-Location":"ELDAMA RAVINE",
    "Facility Type":1,
    "Agency":"MISS"
    }
  },
  {
    "type": "Feature",
    "geometry": {
       "type": "Point",
       "coordinates":  [ 37.0709,0.019 ]
    },
    "properties": {
    "Facility Number":26,
    "Facility Name":"NANYUKI DISTRICT HOSPITAL",
    "HMIS":1713,
    "Province":"RIFT VALLEY",
    "District":"LAIKIPIA",
    "Division":"CENTRAL",
    "LOCATION":"NANYUKI",
    "Sub-Location":"MAJENGOLAIKIPIA",
    "Facility Type":1,
    "Agency":"MOH"
    }
  },
  {
    "type": "Feature",
    "geometry": {
       "type": "Point",
       "coordinates":  [ 35.560811,0.981081 ]
    },
    "properties": {
    "Facility Number":26,
    "Facility Name":"KAPSOWAR AIC  HOSPITAL",
    "HMIS":2043,
    "Province":"RIFT VALLEY",
    "District":"MARAKWET",
    "Division":"KAPSOWAR",
    "LOCATION":"KAPSOWAR",
    "Sub-Location":"KAPSOWAR",
    "Facility Type":1,
    "Agency":"MISS"
    }
  },
  {
    "type": "Feature",
    "geometry": {
       "type": "Point",
       "coordinates":  [ 35.80739,-0.30325 ]
    },
    "properties": {
    "Facility Number":15,
    "Facility Name":"ELBURGON HOSPITAL",
    "HMIS":1764,
    "Province":"RIFT VALLEY",
    "District":"NAKURU",
    "Division":"ELBURGON",
    "LOCATION":"ELBURGON",
    "Sub-Location":"ELBURGON",
    "Facility Type":1,
    "Agency":"MOH"
    }
  },
  {
    "type": "Feature",
    "geometry": {
       "type": "Point",
       "coordinates":  [ 36.32343,-0.50339 ]
    },
    "properties": {
    "Facility Number":19,
    "Facility Name":"GILGIL HOSPITAL",
    "HMIS":1790,
    "Province":"RIFT VALLEY",
    "District":"NAKURU",
    "Division":"GILGIL",
    "LOCATION":"GILGIL",
    "Sub-Location":"GILGIL",
    "Facility Type":1,
    "Agency":"MOH"
    }
  },
  {
    "type": "Feature",
    "geometry": {
       "type": "Point",
       "coordinates":  [ 35.74045,-0.24499 ]
    },
    "properties": {
    "Facility Number":61,
    "Facility Name":"MOLO HOSPITAL",
    "HMIS":1781,
    "Province":"RIFT VALLEY",
    "District":"NAKURU",
    "Division":"MOLO",
    "LOCATION":"MOLO",
    "Sub-Location":"MOLO",
    "Facility Type":1,
    "Agency":"MOH"
    }
  },
  {
    "type": "Feature",
    "geometry": {
       "type": "Point",
       "coordinates":  [ 36.43753,-0.71633 ]
    },
    "properties": {
    "Facility Number":67,
    "Facility Name":"NAIVASHA DISTRICT HOSPITAL",
    "HMIS":1782,
    "Province":"RIFT VALLEY",
    "District":"NAKURU",
    "Division":"NAIVASHA",
    "LOCATION":"NAIVASHA TOWN",
    "Sub-Location":"SOKONINAKURU",
    "Facility Type":1,
    "Agency":"MOH"
    }
  },
  {
    "type": "Feature",
    "geometry": {
       "type": "Point",
       "coordinates":  [ 35.0155,0.42375 ]
    },
    "properties": {
    "Facility Number":13,
    "Facility Name":"KAIBOI HOSPITAL",
    "HMIS":2088,
    "Province":"RIFT VALLEY",
    "District":"NANDI",
    "Division":"KABIYET",
    "LOCATION":"LOLKERINGET",
    "Sub-Location":"KAIBOI",
    "Facility Type":1,
    "Agency":"MISS"
    }
  },
  {
    "type": "Feature",
    "geometry": {
       "type": "Point",
       "coordinates":  [ 35.0954,0.2028 ]
    },
    "properties": {
    "Facility Number":20,
    "Facility Name":"KAPSABET DISTRICT HOSP.",
    "HMIS":2096,
    "Province":"RIFT VALLEY",
    "District":"NANDI",
    "Division":"KAPSABET",
    "LOCATION":"KAPSABET",
    "Sub-Location":"TOWNSHIPKAPSABET",
    "Facility Type":1,
    "Agency":"MOH"
    }
  },
  {
    "type": "Feature",
    "geometry": {
       "type": "Point",
       "coordinates":  [ 34.9257,0.0646 ]
    },
    "properties": {
    "Facility Number":40,
    "Facility Name":"KOBUJOI HOSPITAL",
    "HMIS":2094,
    "Province":"RIFT VALLEY",
    "District":"NANDI",
    "Division":"ALDAI",
    "LOCATION":"MUGEN",
    "Sub-Location":"KAMIMEI",
    "Facility Type":1,
    "Agency":"MISS"
    }
  },
  {
    "type": "Feature",
    "geometry": {
       "type": "Point",
       "coordinates":  [ 35.1831,0.1172 ]
    },
    "properties": {
    "Facility Number":50,
    "Facility Name":"NANDI HILLS SUB-DIST HOSP",
    "HMIS":2097,
    "Province":"RIFT VALLEY",
    "District":"NANDI",
    "Division":"NANDI HILLS",
    "LOCATION":"NANDI HILLS",
    "Sub-Location":"KIPSAMOO",
    "Facility Type":1,
    "Agency":"MOH"
    }
  },
  {
    "type": "Feature",
    "geometry": {
       "type": "Point",
       "coordinates":  [ 35.8636,-1.0961 ]
    },
    "properties": {
    "Facility Number":34,
    "Facility Name":"NAROK DISTRICT HOSPITAL",
    "HMIS":1838,
    "Province":"RIFT VALLEY",
    "District":"NAROK",
    "Division":"CENTRAL",
    "LOCATION":"LOWER MELILI",
    "Sub-Location":"NAROK TOWN",
    "Facility Type":1,
    "Agency":"MOH"
    }
  },
  {
    "type": "Feature",
    "geometry": {
       "type": "Point",
       "coordinates":  [ 36.788,1.79106 ]
    },
    "properties": {
    "Facility Number":4,
    "Facility Name":"BARAGOI SUB-DISTRICT HOSPITAL",
    "HMIS":2123,
    "Province":"RIFT VALLEY",
    "District":"SAMBURU",
    "Division":"BARAGOI",
    "LOCATION":"BARAGOI",
    "Sub-Location":"BARAGOI",
    "Facility Type":1,
    "Agency":"MOH"
    }
  },
  {
    "type": "Feature",
    "geometry": {
       "type": "Point",
       "coordinates":  [ 36.677,1.1478 ]
    },
    "properties": {
    "Facility Number":18,
    "Facility Name":"MARALAL DISTRICT HOSPITAL",
    "HMIS":2126,
    "Province":"RIFT VALLEY",
    "District":"SAMBURU",
    "Division":"KIRISIA",
    "LOCATION":"MARALAL TOWN",
    "Sub-Location":"MARALAL TOWN",
    "Facility Type":1,
    "Agency":"MOH"
    }
  },
  {
    "type": "Feature",
    "geometry": {
       "type": "Point",
       "coordinates":  [ 37.3167,0.98333 ]
    },
    "properties": {
    "Facility Number":41,
    "Facility Name":"WAMBA HOSPITAL",
    "HMIS":2127,
    "Province":"RIFT VALLEY",
    "District":"SAMBURU",
    "Division":"WAMBA",
    "LOCATION":"WAMBA",
    "Sub-Location":"WAMBA TOWN",
    "Facility Type":1,
    "Agency":"MISS"
    }
  },
  {
    "type": "Feature",
    "geometry": {
       "type": "Point",
       "coordinates":  [ 34.8789,-1.00212 ]
    },
    "properties": {
    "Facility Number":16,
    "Facility Name":"KILGORIS DIST HOSP/TRANSMARA DIST HOSP",
    "HMIS":1828,
    "Province":"RIFT VALLEY",
    "District":"TRANS MARA",
    "Division":"KILGORIS",
    "LOCATION":"OLOLCHANI",
    "Sub-Location":"KILGORIS",
    "Facility Type":1,
    "Agency":"MOH"
    }
  },
  {
    "type": "Feature",
    "geometry": {
       "type": "Point",
       "coordinates":  [ 34.768478,-1.037027 ]
    },
    "properties": {
    "Facility Number":22,
    "Facility Name":"KORDA MISSION HOSPITAL",
    "HMIS":0,
    "Province":"RIFT VALLEY",
    "District":"TRANS MARA",
    "Division":"KEIYAN",
    "LOCATION":"ISAMPIN",
    "Sub-Location":"ELANGATA SAEN",
    "Facility Type":1,
    "Agency":"MISS"
    }
  },
  {
    "type": "Feature",
    "geometry": {
       "type": "Point",
       "coordinates":  [ 34.8062,-1.22817 ]
    },
    "properties": {
    "Facility Number":24,
    "Facility Name":"LOLGORIEN  SUB DISTRICT HOSPITAL",
    "HMIS":1829,
    "Province":"RIFT VALLEY",
    "District":"TRANS MARA",
    "Division":"LOLGORIAN",
    "LOCATION":"MOYOI",
    "Sub-Location":"LOLGORIAN",
    "Facility Type":1,
    "Agency":"MOH"
    }
  },
  {
    "type": "Feature",
    "geometry": {
       "type": "Point",
       "coordinates":  [ 34.8776,-1.00244 ]
    },
    "properties": {
    "Facility Number":45,
    "Facility Name":"ST. JOSEPH MISS.  HOSP. KILGORIS",
    "HMIS":1837,
    "Province":"RIFT VALLEY",
    "District":"TRANS MARA",
    "Division":"KILGORIS",
    "LOCATION":"OLOLCHANI",
    "Sub-Location":"KILGORIS",
    "Facility Type":1,
    "Agency":"MISS"
    }
  },
  {
    "type": "Feature",
    "geometry": {
       "type": "Point",
       "coordinates":  [ 34.92535,0.887734 ]
    },
    "properties": {
    "Facility Number":24,
    "Facility Name":"KIMININI CATHOLIC COTTAGE HOSP",
    "HMIS":1846,
    "Province":"RIFT VALLEY",
    "District":"TRANS-NZOIA",
    "Division":"KIMININI",
    "LOCATION":"KIMININI",
    "Sub-Location":"KIMININITNZOIA",
    "Facility Type":1,
    "Agency":"MISS"
    }
  },
  {
    "type": "Feature",
    "geometry": {
       "type": "Point",
       "coordinates":  [ 35.0189,1.03732 ]
    },
    "properties": {
    "Facility Number":28,
    "Facility Name":"KITALE DISTRICT HOSPITAL",
    "HMIS":1868,
    "Province":"RIFT VALLEY",
    "District":"TRANS-NZOIA",
    "Division":"CENTRAL",
    "LOCATION":"KIBOMET",
    "Sub-Location":"BIDII",
    "Facility Type":1,
    "Agency":"MOH"
    }
  },
  {
    "type": "Feature",
    "geometry": {
       "type": "Point",
       "coordinates":  [ 34.3078,4.189929 ]
    },
    "properties": {
    "Facility Number":7,
    "Facility Name":"ICRC LOKICHOGGIO HOSPITAL",
    "HMIS":0,
    "Province":"RIFT VALLEY",
    "District":"TURKANA",
    "Division":"LOKICHOGGIO",
    "LOCATION":"LOKICHOGGIO",
    "Sub-Location":"LOKICHOGGIO",
    "Facility Type":1,
    "Agency":"NGO"
    }
  },
  {
    "type": "Feature",
    "geometry": {
       "type": "Point",
       "coordinates":  [ 34.8668,3.71732 ]
    },
    "properties": {
    "Facility Number":17,
    "Facility Name":"KAKUMA HOSPITAL",
    "HMIS":2170,
    "Province":"RIFT VALLEY",
    "District":"TURKANA",
    "Division":"KAKUMA",
    "LOCATION":"KAKUMA",
    "Sub-Location":"NADAPALKAKUMA",
    "Facility Type":1,
    "Agency":"MISS"
    }
  },
  {
    "type": "Feature",
    "geometry": {
       "type": "Point",
       "coordinates":  [ 35.5998,3.1176 ]
    },
    "properties": {
    "Facility Number":44,
    "Facility Name":"LODWAR DISTRICT HOSPITAL",
    "HMIS":2172,
    "Province":"RIFT VALLEY",
    "District":"TURKANA",
    "Division":"CENTRAL",
    "LOCATION":"LODWAR TOWN",
    "Sub-Location":"NAPETET",
    "Facility Type":1,
    "Agency":"MOH"
    }
  },
  {
    "type": "Feature",
    "geometry": {
       "type": "Point",
       "coordinates":  [ 34.3924,4.18101 ]
    },
    "properties": {
    "Facility Number":49,
    "Facility Name":"LOKICHOGIO DISTRICT HOSPITAL",
    "HMIS":0,
    "Province":"RIFT VALLEY",
    "District":"TURKANA",
    "Division":"LOKICHOGGIO",
    "LOCATION":"MOGILA",
    "Sub-Location":"MOGILA",
    "Facility Type":1,
    "Agency":"MOH"
    }
  },
  {
    "type": "Feature",
    "geometry": {
       "type": "Point",
       "coordinates":  [ 35.7514,4.2679 ]
    },
    "properties": {
    "Facility Number":52,
    "Facility Name":"LOKITAUNG SUB-DISTRICT HOSP.",
    "HMIS":2173,
    "Province":"RIFT VALLEY",
    "District":"TURKANA",
    "Division":"LOKITAUNG",
    "LOCATION":"LOKITAUNG",
    "Sub-Location":"NAKALALELOKITAUNG",
    "Facility Type":1,
    "Agency":"MOH"
    }
  },
  {
    "type": "Feature",
    "geometry": {
       "type": "Point",
       "coordinates":  [ 35.4251,0.404511 ]
    },
    "properties": {
    "Facility Number":55,
    "Facility Name":"P.C.E.A PLATEAU HOSPITAL",
    "HMIS":1926,
    "Province":"RIFT VALLEY",
    "District":"UASIN GISHU",
    "Division":"AINABKOI",
    "LOCATION":"CHEPKERO",
    "Sub-Location":"KILEGES",
    "Facility Type":1,
    "Agency":"MISS"
    }
  },
  {
    "type": "Feature",
    "geometry": {
       "type": "Point",
       "coordinates":  [ 35.1162,1.2335 ]
    },
    "properties": {
    "Facility Number":24,
    "Facility Name":"KAPENGURIA DISTRICT HOSPITAL",
    "HMIS":2209,
    "Province":"RIFT VALLEY",
    "District":"WEST POKOT",
    "Division":"KAPENGURIA",
    "LOCATION":"KAPENGURIA",
    "Sub-Location":"CHEWOYET",
    "Facility Type":1,
    "Agency":"MOH"
    }
  },
  {
    "type": "Feature",
    "geometry": {
       "type": "Point",
       "coordinates":  [ 35.3482,1.45572 ]
    },
    "properties": {
    "Facility Number":55,
    "Facility Name":"ORTUM CATHOLIC MISSION HOSP.",
    "HMIS":2210,
    "Province":"RIFT VALLEY",
    "District":"WEST POKOT",
    "Division":"CHEPARERIA",
    "LOCATION":"BATEI",
    "Sub-Location":"SOBUKWO",
    "Facility Type":1,
    "Agency":"MISS"
    }
  },
  {
    "type": "Feature",
    "geometry": {
       "type": "Point",
       "coordinates":  [ 34.557,0.572 ]
    },
    "properties": {
    "Facility Number":5,
    "Facility Name":"BUNGOMA DISTRICT HOSPITAL",
    "HMIS":2237,
    "Province":"WESTERN",
    "District":"BUNGOMA",
    "Division":"KANDUYI",
    "LOCATION":"TOWNSHIP",
    "Sub-Location":"TOWNSHIPKANDUYI",
    "Facility Type":1,
    "Agency":"MOH"
    }
  },
  {
    "type": "Feature",
    "geometry": {
       "type": "Point",
       "coordinates":  [ 34.712779,0.788988 ]
    },
    "properties": {
    "Facility Number":23,
    "Facility Name":"KIMILILI SUB-DISTRICT HOSPITAL",
    "HMIS":2230,
    "Province":"WESTERN",
    "District":"BUNGOMA",
    "Division":"KIMILILI",
    "LOCATION":"KIMILILI",
    "Sub-Location":"TOWNSHIPKIMILILI",
    "Facility Type":1,
    "Agency":"MOH"
    }
  },
  {
    "type": "Feature",
    "geometry": {
       "type": "Point",
       "coordinates":  [ 34.752781,0.661309 ]
    },
    "properties": {
    "Facility Number":30,
    "Facility Name":"LUGULU MISSION HOSPITAL",
    "HMIS":2238,
    "Province":"WESTERN",
    "District":"BUNGOMA",
    "Division":"WEBUYE",
    "LOCATION":"MISIKHU",
    "Sub-Location":"KITUNI",
    "Facility Type":1,
    "Agency":"MISS"
    }
  },
  {
    "type": "Feature",
    "geometry": {
       "type": "Point",
       "coordinates":  [ 34.7575,0.71883 ]
    },
    "properties": {
    "Facility Number":40,
    "Facility Name":"MISIKHU MISSION HOSPITAL",
    "HMIS":2239,
    "Province":"WESTERN",
    "District":"BUNGOMA",
    "Division":"NDIVISI",
    "LOCATION":"NAMARAMBI",
    "Sub-Location":"MARINDA",
    "Facility Type":1,
    "Agency":"MISS"
    }
  },
  {
    "type": "Feature",
    "geometry": {
       "type": "Point",
       "coordinates":  [ 34.7585,0.5971 ]
    },
    "properties": {
    "Facility Number":59,
    "Facility Name":"WEBUYE DISTRICT HOSPITAL",
    "HMIS":2240,
    "Province":"WESTERN",
    "District":"BUNGOMA",
    "Division":"WEBUYE",
    "LOCATION":"WEBUYE",
    "Sub-Location":"MARAKA",
    "Facility Type":1,
    "Agency":"MOH"
    }
  },
  {
    "type": "Feature",
    "geometry": {
       "type": "Point",
       "coordinates":  [ 34.104497,0.460407 ]
    },
    "properties": {
    "Facility Number":8,
    "Facility Name":"BUSIA DISTRICT HOSPITAL",
    "HMIS":2264,
    "Province":"WESTERN",
    "District":"BUSIA",
    "Division":"TOWNSHIP",
    "LOCATION":"TOWNSHIP",
    "Sub-Location":"MJINI CENTRAL",
    "Facility Type":1,
    "Agency":"MOH"
    }
  },
  {
    "type": "Feature",
    "geometry": {
       "type": "Point",
       "coordinates":  [ 34.0957,0.32367 ]
    },
    "properties": {
    "Facility Number":24,
    "Facility Name":"NAMBOBOTO CATHOLIC MISSION H.",
    "HMIS":0,
    "Province":"WESTERN",
    "District":"BUSIA",
    "Division":"FUNYULA",
    "LOCATION":"NAMBUKU",
    "Sub-Location":"LUGALA",
    "Facility Type":1,
    "Agency":"MISS"
    }
  },
  {
    "type": "Feature",
    "geometry": {
       "type": "Point",
       "coordinates":  [ 34.105452,0.277485 ]
    },
    "properties": {
    "Facility Number":28,
    "Facility Name":"NANGINA MISSION HOSPITAL",
    "HMIS":2265,
    "Province":"WESTERN",
    "District":"BUSIA",
    "Division":"FUNYULA",
    "LOCATION":"NANGOSIA",
    "Sub-Location":"SIGULU",
    "Facility Type":1,
    "Agency":"MISS"
    }
  },
  {
    "type": "Feature",
    "geometry": {
       "type": "Point",
       "coordinates":  [ 33.975805,0.097198 ]
    },
    "properties": {
    "Facility Number":29,
    "Facility Name":"PORT VICTORIA SUB-DISTRICT HOSP",
    "HMIS":2266,
    "Province":"WESTERN",
    "District":"BUSIA",
    "Division":"BUDALANGI",
    "LOCATION":"BUNYALA WEST",
    "Sub-Location":"BUKANI",
    "Facility Type":1,
    "Agency":"MOH"
    }
  },
  {
    "type": "Feature",
    "geometry": {
       "type": "Point",
       "coordinates":  [ 34.493471,0.208536 ]
    },
    "properties": {
    "Facility Number":7,
    "Facility Name":"BUTERE DISTRICT HOSPITAL",
    "HMIS":2306,
    "Province":"WESTERN",
    "District":"BUTERE/MUMIAS",
    "Division":"BUTERE",
    "LOCATION":"TOWNSHIP",
    "Sub-Location":"SHIREMBE",
    "Facility Type":1,
    "Agency":"MOH"
    }
  },
  {
    "type": "Feature",
    "geometry": {
       "type": "Point",
       "coordinates":  [ 34.45262,0.160402 ]
    },
    "properties": {
    "Facility Number":24,
    "Facility Name":"MANYALA SUB-DISTRICT HOSPITAL",
    "HMIS":2325,
    "Province":"WESTERN",
    "District":"BUTERE/MUMIAS",
    "Division":"BUTERE",
    "LOCATION":"MANYALA",
    "Sub-Location":"ESHIENJERA",
    "Facility Type":1,
    "Agency":"MOH"
    }
  },
  {
    "type": "Feature",
    "geometry": {
       "type": "Point",
       "coordinates":  [ 34.4342,0.32246 ]
    },
    "properties": {
    "Facility Number":30,
    "Facility Name":"MUMIAS MISSION HOSPITAL",
    "HMIS":0,
    "Province":"WESTERN",
    "District":"BUTERE/MUMIAS",
    "Division":"MUMIAS",
    "LOCATION":"NABONGO",
    "Sub-Location":"MATAWA",
    "Facility Type":1,
    "Agency":"MISS"
    }
  },
  {
    "type": "Feature",
    "geometry": {
       "type": "Point",
       "coordinates":  [ 34.613972,0.17753 ]
    },
    "properties": {
    "Facility Number":36,
    "Facility Name":"MWIHILIA COG HOSPITAL YALA",
    "HMIS":2350,
    "Province":"WESTERN",
    "District":"BUTERE/MUMIAS",
    "Division":"KHWISERO",
    "LOCATION":"NORTH KISA",
    "Sub-Location":"MUNDOBELWA",
    "Facility Type":1,
    "Agency":"MISS"
    }
  },
  {
    "type": "Feature",
    "geometry": {
       "type": "Point",
       "coordinates":  [ 34.498991,0.326827 ]
    },
    "properties": {
    "Facility Number":47,
    "Facility Name":"ST.MARY'S  HOSPITAL",
    "HMIS":2349,
    "Province":"WESTERN",
    "District":"BUTERE/MUMIAS",
    "Division":"MUMIAS",
    "LOCATION":"NABONGO",
    "Sub-Location":"TOWNSHIP",
    "Facility Type":1,
    "Agency":"MISS"
    }
  },
  {
    "type": "Feature",
    "geometry": {
       "type": "Point",
       "coordinates":  [ 34.7652,0.204344 ]
    },
    "properties": {
    "Facility Number":35,
    "Facility Name":"MUKUMU MISSION HOSP",
    "HMIS":2348,
    "Province":"WESTERN",
    "District":"KAKAMEGA",
    "Division":"SHINYALU",
    "LOCATION":"KHAYEGA",
    "Sub-Location":"SHITOCHI",
    "Facility Type":1,
    "Agency":"MISS"
    }
  },
  {
    "type": "Feature",
    "geometry": {
       "type": "Point",
       "coordinates":  [ 34.97615,0.634782 ]
    },
    "properties": {
    "Facility Number":6,
    "Facility Name":"LUMAKANDA DISTRICT HOSPITAL",
    "HMIS":2321,
    "Province":"WESTERN",
    "District":"LUGARI/MALAVA",
    "Division":"LUGARI",
    "LOCATION":"LUMAKANDA",
    "Sub-Location":"MUNYUKI",
    "Facility Type":1,
    "Agency":"MOH"
    }
  },
  {
    "type": "Feature",
    "geometry": {
       "type": "Point",
       "coordinates":  [ 34.7148,0.846079 ]
    },
    "properties": {
    "Facility Number":6,
    "Facility Name":"KAPSOKWONY DISTRICT HOSP",
    "HMIS":2227,
    "Province":"WESTERN",
    "District":"MOUNT ELGON",
    "Division":"KAPSOKWONY",
    "LOCATION":"KAPSOKWONY",
    "Sub-Location":"BUGAA",
    "Facility Type":1,
    "Agency":"MOH"
    }
  },
  {
    "type": "Feature",
    "geometry": {
       "type": "Point",
       "coordinates":  [ 34.289204,0.572453 ]
    },
    "properties": {
    "Facility Number":3,
    "Facility Name":"AMUKURA MISS. HOSPITAL",
    "HMIS":2252,
    "Province":"WESTERN",
    "District":"TESO",
    "Division":"AMUKURA",
    "LOCATION":"AMUKURA",
    "Sub-Location":"AMUKURA",
    "Facility Type":1,
    "Agency":"MISS"
    }
  },
  {
    "type": "Feature",
    "geometry": {
       "type": "Point",
       "coordinates":  [ 34.84834,0.13183 ]
    },
    "properties": {
    "Facility Number":19,
    "Facility Name":"KAIMOSI FRIENDS' HOSPITAL",
    "HMIS":2343,
    "Province":"WESTERN",
    "District":"VIHIGA",
    "Division":"TIRIKI EAST",
    "LOCATION":"SHAVIRINGA",
    "Sub-Location":"MULUNDUTIRIKI EAST",
    "Facility Type":1,
    "Agency":"MISS"
    }
  },
  {
    "type": "Feature",
    "geometry": {
       "type": "Point",
       "coordinates":  [ 34.64,0.04 ]
    },
    "properties": {
    "Facility Number":21,
    "Facility Name":"KIMA HOSPITAL",
    "HMIS":2345,
    "Province":"WESTERN",
    "District":"VIHIGA",
    "Division":"EMUHAYA",
    "LOCATION":"WEKHOMO",
    "Sub-Location":"IBOONA",
    "Facility Type":1,
    "Agency":"MISS"
    }
  },
  {
    "type": "Feature",
    "geometry": {
       "type": "Point",
       "coordinates":  [ 34.72989,0.08365 ]
    },
    "properties": {
    "Facility Number":37,
    "Facility Name":"VIHIGA DISTRICT HOSPITAL",
    "HMIS":1697,
    "Province":"WESTERN",
    "District":"VIHIGA",
    "Division":"VIHIGA",
    "LOCATION":"WAMULUMA",
    "Sub-Location":"KEGOYE",
    "Facility Type":1,
    "Agency":"MOH"
    }
  },
  {
    "type": "Feature",
    "geometry": {
       "type": "Point",
       "coordinates":  [ 37.646847,-0.335586 ]
    },
    "properties": {
    "Facility Number":48,
    "Facility Name":"ST. LUCIE'S HOSPITAL",
    "HMIS":4130,
    "Province":"EASTERN",
    "District":"SOUTH MERU",
    "Division":"CHUKA",
    "LOCATION":"MUGWE",
    "Sub-Location":"MUGIRIRWA",
    "Facility Type":1,
    "Agency":"PRIV"
    }
  },
  {
    "type": "Feature",
    "geometry": {
       "type": "Point",
       "coordinates":  [ 0.00E+00,0.00E+00 ]
    },
    "properties": {
    "Facility Number":0,
    "Facility Name":"SYATHANI DISP",
    "HMIS":0,
    "Province":"EASTERN",
    "District":"KITUI",
    "Division":"MUTONGONI",
    "LOCATION":"",
    "Sub-Location":"",
    "Facility Type":4,
    "Agency":"MOH"
    }
  },
  {
    "type": "Feature",
    "geometry": {
       "type": "Point",
       "coordinates":  [ 39.677362,-4.059355 ]
    },
    "properties": {
    "Facility Number":7,
    "Facility Name":"COAST PROVINCIAL GENERAL HOSP.",
    "HMIS":696,
    "Province":"COAST",
    "District":"MOMBASA",
    "Division":"ISLAND",
    "LOCATION":"OLD TOWN",
    "Sub-Location":"OLD T.MAKADARA WARD",
    "Facility Type":2,
    "Agency":"MOH"
    }
  },
  {
    "type": "Feature",
    "geometry": {
       "type": "Point",
       "coordinates":  [ 37.453604,-0.522973 ]
    },
    "properties": {
    "Facility Number":3,
    "Facility Name":"EMBU PGH",
    "HMIS":840,
    "Province":"EASTERN",
    "District":"EMBU",
    "Division":"CENTRAL",
    "LOCATION":"MUNICIPALITY",
    "Sub-Location":"NJUKIRI",
    "Facility Type":2,
    "Agency":"MOH"
    }
  },
  {
    "type": "Feature",
    "geometry": {
       "type": "Point",
       "coordinates":  [ 39.7739,-0.334012 ]
    },
    "properties": {
    "Facility Number":11,
    "Facility Name":"GARISSA PROVINCIAL GENERAL HOSPITAL",
    "HMIS":1209,
    "Province":"N. EASTERN",
    "District":"GARISSA",
    "Division":"CENTRAL",
    "LOCATION":"WABERI",
    "Sub-Location":"WABERI",
    "Facility Type":2,
    "Agency":"MOH"
    }
  },
  {
    "type": "Feature",
    "geometry": {
       "type": "Point",
       "coordinates":  [ 36.806388,-1.300876 ]
    },
    "properties": {
    "Facility Number":63,
    "Facility Name":"KENYATTA NATIONAL HOSPITAL",
    "HMIS":157,
    "Province":"NAIROBI",
    "District":"NAIROBI",
    "Division":"DAGORETTI",
    "LOCATION":"KENYATTA/GOLF COURSE",
    "Sub-Location":"KENYATTA",
    "Facility Type":2,
    "Agency":"MOH"
    }
  },
  {
    "type": "Feature",
    "geometry": {
       "type": "Point",
       "coordinates":  [ 34.6732,-0.0919 ]
    },
    "properties": {
    "Facility Number":25,
    "Facility Name":"NYANZA PROVINCIAL GENERAL HOSP",
    "HMIS":1328,
    "Province":"NYANZA",
    "District":"KISUMU",
    "Division":"WINAM",
    "LOCATION":"S.W KISUMU",
    "Sub-Location":"OJOLLA",
    "Facility Type":2,
    "Agency":"MOH"
    }
  },
  {
    "type": "Feature",
    "geometry": {
       "type": "Point",
       "coordinates":  [ 36.08029,-0.2797 ]
    },
    "properties": {
    "Facility Number":69,
    "Facility Name":"NAKURU PGH ANNEX",
    "HMIS":3842,
    "Province":"RIFT VALLEY",
    "District":"NAKURU",
    "Division":"NAKURU MUNI.",
    "LOCATION":"CENTRAL",
    "Sub-Location":"AFRAHA",
    "Facility Type":2,
    "Agency":"MOH"
    }
  },
  {
    "type": "Feature",
    "geometry": {
       "type": "Point",
       "coordinates":  [ 36.0732,-0.28133 ]
    },
    "properties": {
    "Facility Number":70,
    "Facility Name":"NAKURU PROVINCIAL GENERAL HOSP",
    "HMIS":1783,
    "Province":"RIFT VALLEY",
    "District":"NAKURU",
    "Division":"NAKURU MUNI.",
    "LOCATION":"CENTRAL",
    "Sub-Location":"AFRAHA",
    "Facility Type":2,
    "Agency":"MOH"
    }
  },
  {
    "type": "Feature",
    "geometry": {
       "type": "Point",
       "coordinates":  [ 35.2886,0.538332 ]
    },
    "properties": {
    "Facility Number":19,
    "Facility Name":"ELDORET DISTRICT HOSPITAL MOI REFERRAL & TEACHING HOSPITAL",
    "HMIS":1923,
    "Province":"RIFT VALLEY",
    "District":"UASIN GISHU",
    "Division":"SOY",
    "LOCATION":"KIBULGENY",
    "Sub-Location":"KAMUKUNJIUGISHU",
    "Facility Type":2,
    "Agency":"MOH"
    }
  },
  {
    "type": "Feature",
    "geometry": {
       "type": "Point",
       "coordinates":  [ 34.758806,0.27498 ]
    },
    "properties": {
    "Facility Number":25,
    "Facility Name":"KAKAMEGA PROVINCIAL GENERAL",
    "HMIS":2344,
    "Province":"WESTERN",
    "District":"KAKAMEGA",
    "Division":"MUNICIPALITY",
    "LOCATION":"BUKHUNGU",
    "Sub-Location":"SHIRERE",
    "Facility Type":2,
    "Agency":"MOH"
    }
  },
  {
    "type": "Feature",
    "geometry": {
       "type": "Point",
       "coordinates":  [ 36.7462,-1.083 ]
    },
    "properties": {
    "Facility Number":12,
    "Facility Name":"GITHIGA HEALTH CENTRE",
    "HMIS":2401,
    "Province":"CENTRAL",
    "District":"KIAMBU",
    "Division":"GITHUNGURI",
    "LOCATION":"GITHIGA",
    "Sub-Location":"MATUGUTA",
    "Facility Type":3,
    "Agency":"MOH"
    }
  },
  {
    "type": "Feature",
    "geometry": {
       "type": "Point",
       "coordinates":  [ 36.788,-1.05339 ]
    },
    "properties": {
    "Facility Number":13,
    "Facility Name":"GITHUNGURI HEALTH CENTRE",
    "HMIS":233,
    "Province":"CENTRAL",
    "District":"KIAMBU",
    "Division":"GITHUNGURI",
    "LOCATION":"GITHUNGURI",
    "Sub-Location":"KANJAI",
    "Facility Type":3,
    "Agency":"MOH"
    }
  },
  {
    "type": "Feature",
    "geometry": {
       "type": "Point",
       "coordinates":  [ 36.6896,-1.0742 ]
    },
    "properties": {
    "Facility Number":14,
    "Facility Name":"GITIHA HEALTH CENTRE",
    "HMIS":2398,
    "Province":"CENTRAL",
    "District":"KIAMBU",
    "Division":"GITHUNGURI",
    "LOCATION":"GITHIGA",
    "Sub-Location":"GITIHA",
    "Facility Type":3,
    "Agency":"MOH"
    }
  },
  {
    "type": "Feature",
    "geometry": {
       "type": "Point",
       "coordinates":  [ 36.7467,-1.05093 ]
    },
    "properties": {
    "Facility Number":17,
    "Facility Name":"KAGAA HEALTH CENTRE",
    "HMIS":2400,
    "Province":"CENTRAL",
    "District":"KIAMBU",
    "Division":"GITHUNGURI",
    "LOCATION":"GITHUNGURI",
    "Sub-Location":"GITHUNGURIKIAMBU",
    "Facility Type":3,
    "Agency":"MOH"
    }
  },
  {
    "type": "Feature",
    "geometry": {
       "type": "Point",
       "coordinates":  [ 36.7392,-1.00448 ]
    },
    "properties": {
    "Facility Number":19,
    "Facility Name":"KAGWE HEALTH CENTRE",
    "HMIS":2447,
    "Province":"CENTRAL",
    "District":"KIAMBU",
    "Division":"LARI",
    "LOCATION":"GATAMAIYU",
    "Sub-Location":"KAGWE",
    "Facility Type":3,
    "Agency":"MOH"
    }
  },
  {
    "type": "Feature",
    "geometry": {
       "type": "Point",
       "coordinates":  [ 36.5765,-1.28069 ]
    },
    "properties": {
    "Facility Number":23,
    "Facility Name":"KARAI HEALTH CENTRE",
    "HMIS":0,
    "Province":"CENTRAL",
    "District":"KIAMBU",
    "Division":"KIKUYU",
    "LOCATION":"KARAI",
    "Sub-Location":"NACHU",
    "Facility Type":3,
    "Agency":"MOH"
    }
  },
  {
    "type": "Feature",
    "geometry": {
       "type": "Point",
       "coordinates":  [ 36.7399,-1.18431 ]
    },
    "properties": {
    "Facility Number":26,
    "Facility Name":"KARURI HEALTH CENTRE",
    "HMIS":261,
    "Province":"CENTRAL",
    "District":"KIAMBU",
    "Division":"KIAMBAA",
    "LOCATION":"KIAMBAA",
    "Sub-Location":"NJIKU",
    "Facility Type":3,
    "Agency":"MOH"
    }
  },
  {
    "type": "Feature",
    "geometry": {
       "type": "Point",
       "coordinates":  [ 36.783449,-1.157365 ]
    },
    "properties": {
    "Facility Number":31,
    "Facility Name":"KIBUBUTI HEALTH CENTRE",
    "HMIS":2412,
    "Province":"CENTRAL",
    "District":"KIAMBU",
    "Division":"KIAMBAA",
    "LOCATION":"WAGUTHU",
    "Sub-Location":"KANUNGA",
    "Facility Type":3,
    "Agency":"MISS"
    }
  },
  {
    "type": "Feature",
    "geometry": {
       "type": "Point",
       "coordinates":  [ 36.619369,-0.858108 ]
    },
    "properties": {
    "Facility Number":33,
    "Facility Name":"KIENI HEALTH CENTRE",
    "HMIS":2448,
    "Province":"CENTRAL",
    "District":"KIAMBU",
    "Division":"LARI",
    "LOCATION":"KAMAE",
    "Sub-Location":"KAMUKOMBI-INI",
    "Facility Type":3,
    "Agency":"MOH"
    }
  },
  {
    "type": "Feature",
    "geometry": {
       "type": "Point",
       "coordinates":  [ 36.82658,-1.031082 ]
    },
    "properties": {
    "Facility Number":34,
    "Facility Name":"KIGUMO HEALTH CENTRE",
    "HMIS":237,
    "Province":"CENTRAL",
    "District":"KIAMBU",
    "Division":"GITHUNGURI",
    "LOCATION":"KOMOTHAI",
    "Sub-Location":"KARATINA",
    "Facility Type":3,
    "Agency":"MOH"
    }
  },
  {
    "type": "Feature",
    "geometry": {
       "type": "Point",
       "coordinates":  [ 36.7386,-1.21091 ]
    },
    "properties": {
    "Facility Number":35,
    "Facility Name":"KIHARA HEALTH CENTRE",
    "HMIS":216,
    "Province":"CENTRAL",
    "District":"KIAMBU",
    "Division":"KIAMBAA",
    "LOCATION":"KIHARA",
    "Sub-Location":"MAHINDI",
    "Facility Type":3,
    "Agency":"MOH"
    }
  },
  {
    "type": "Feature",
    "geometry": {
       "type": "Point",
       "coordinates":  [ 36.6157,-0.908237 ]
    },
    "properties": {
    "Facility Number":39,
    "Facility Name":"KINALE HEALTH CENTRE",
    "HMIS":2452,
    "Province":"CENTRAL",
    "District":"KIAMBU",
    "Division":"LARI",
    "LOCATION":"KINALE",
    "Sub-Location":"MUKEUKIAMBU",
    "Facility Type":3,
    "Agency":"MOH"
    }
  },
  {
    "type": "Feature",
    "geometry": {
       "type": "Point",
       "coordinates":  [ 36.63,-0.97 ]
    },
    "properties": {
    "Facility Number":42,
    "Facility Name":"KIRIITA MISSION HC",
    "HMIS":235,
    "Province":"CENTRAL",
    "District":"KIAMBU",
    "Division":"LARI",
    "LOCATION":"KIJABE",
    "Sub-Location":"BATHI",
    "Facility Type":3,
    "Agency":"MISS"
    }
  },
  {
    "type": "Feature",
    "geometry": {
       "type": "Point",
       "coordinates":  [ 36.605,-1.02791 ]
    },
    "properties": {
    "Facility Number":43,
    "Facility Name":"LARI HEALTH CENTRE",
    "HMIS":239,
    "Province":"CENTRAL",
    "District":"KIAMBU",
    "Division":"LARI",
    "LOCATION":"KIRENGA",
    "Sub-Location":"ESCARPMENT",
    "Facility Type":3,
    "Agency":"MOH"
    }
  },
  {
    "type": "Feature",
    "geometry": {
       "type": "Point",
       "coordinates":  [ 36.6366,-1.11593 ]
    },